$PAISTN,987654321,NAUT,CALLSIGN23,37,23,42,34,84*36
$PAINF,A,0x22*59
$PAINF,B,0x1b*09
$PAISYS,11.9.1,4.4.1,,STM32L412,1,1*08
$PAITXCFG,1,1,1,1,1*0B
$PMTK011,MTKGPS*08
$PMTK010,001*2E
!AIVDM,1,1,,B,13aDq7PP00PBkN8MQha@0?v@2@4n,0*0F
$PMTK011,MTKGPS*08
$PMTK010,002*2D
!AIVDM,1,1,,A,13aEOUPP1PPCF1@MRirad?wjR8QP,0*17
$GPVTG,,T,,M,0.00,N,0.00,K,A*23
$GPGGA,115157.000,5137.2677,N,00416.0307,E,1,19,0.58,3.5,M,47.2,M,,*6B
$GNGSA,A,3,21,03,02,32,19,14,31,28,17,22,04,,0.84,0.58,0.61,1*03
$GNGSA,A,3,87,65,79,72,80,88,86,71,,,,,0.84,0.58,0.61,2*03
$GPGSV,4,1,14,03,71,254,32,02,65,127,25,21,47,125,32,17,45,292,28,0*63
$GPGSV,4,2,14,49,30,179,26,19,25,314,25,04,24,183,34,28,17,074,31,0*6F
$GPGSV,4,3,14,32,15,040,28,22,14,275,17,31,09,106,20,14,05,254,25,0*65
$GPGSV,4,4,14,06,02,297,28,08,01,168,31,0*66
$GLGSV,3,1,09,72,78,074,18,87,64,133,25,88,53,317,22,65,37,210,29,1*74
$GLGSV,3,2,09,71,29,039,32,86,14,135,28,80,11,010,23,79,09,320,18,1*77
$GLGSV,3,3,09,81,02,317,30,1*4C
$GNGLL,5137.2677,N,00416.0307,E,115157.000,A,A*42
$GNRMC,115158.000,A,5137.2677,N,00416.0307,E,0.00,,200724,,,A,V*1D
!AIVDM,1,1,,A,133vqAPP0rPBvl>MSnTr9gwl25K<,0*46
!AIVDM,1,1,,A,13aDqWPP1>0C=1RMR>gH7wwlPD3c,0*14
!AIVDM,1,1,,B,13aGEihP0nPCSkLMSLMadwv02<4@,0*7D
!AIVDM,1,1,,B,13aFgHhP1CPCfNfMSa32o?v0R@0<,0*4E
!AIVDM,1,1,,A,13aIht0P0vPC1C0MSpws8gwV20RU,0*76
!AIVDM,1,1,,B,139eb=0P1M0CMgJMS4raJOv0P@0K,0*3A
!AIVDM,1,1,,B,B3449BP0<84saC7HK=LDCwP5oP06,0*47
!AIVDM,1,1,,B,13aGrOEP0bPCagpMS`Jr2?v2RDAG,0*01
!AIVDM,1,1,,B,133i<eP01=0CAE4MSGuE=T:405K@,0*0B
!AIVDM,1,1,,A,13aC2>hP1LPCIS8MS7SbNwv22<4c,0*42
!AIVDM,1,1,,A,133uKrP01@PCboFMSQoBSR46P<4<,0*17
!AIVDM,1,1,,A,13aDB9@P0LPC=JtMSb85<Ov6282C,0*3F
!AIVDM,1,1,,B,140Uw;@P1LPCFGtMS;ssbOv8282U,0*29
!AIVDM,1,1,,A,13aFdrPP1?PCLOhMSJnrrgv820S4,0*15
!AIVDM,1,1,,B,13aFfU@P0DPC<<8MSr@T@Ov82@2k,0*6E
!AIVDM,1,1,,A,B3aHco@0<`4lEs7I6rP:<:h5oP06,0*02
!AIVDM,1,1,,B,13aDCI@P00PD0SpMSf4LJgv<25K@,0*74
!AIVDM,1,1,,B,13aEOUPP1OPCElpMRiRId?v>RD2m,0*1A
!AIVDM,1,1,,B,13aFfu00000Bi2bMSuRdl3t@00RM,0*71
!AIVDM,1,1,,A,B3`hp6h0084djbWHM5gQ3wSQnDoJ,0*09
$GPVTG,,T,,M,0.00,N,0.00,K,A*23
$GPGGA,115208.000,5137.2677,N,00416.0307,E,1,19,0.58,3.5,M,47.2,M,,*62
$GNGSA,A,3,21,03,02,32,19,14,31,28,17,22,04,,0.84,0.58,0.61,1*03
$GNGSA,A,3,87,65,79,72,80,88,86,71,,,,,0.84,0.58,0.61,2*03
$GPGSV,4,1,14,03,71,254,35,02,65,127,26,21,47,125,32,17,45,292,30,0*6E
$GPGSV,4,2,14,49,30,179,28,19,25,314,28,04,24,183,35,28,17,074,32,0*6E
$GPGSV,4,3,14,32,15,040,28,22,14,275,19,31,09,106,18,14,05,254,25,0*60
$GPGSV,4,4,14,06,02,297,27,08,01,168,30,0*68
$GLGSV,3,1,09,72,77,070,18,87,64,133,26,88,53,317,22,65,37,210,31,1*75
$GLGSV,3,2,09,71,28,039,32,86,14,135,26,80,11,010,24,79,09,319,17,1*7A
$GLGSV,3,3,09,81,02,317,30,1*4C
$GNGLL,5137.2677,N,00416.0307,E,115208.000,A,A*4B
$GNRMC,115209.000,A,5137.2677,N,00416.0307,E,0.00,,200724,,,A,V*1A
!AIVDM,1,1,,B,13`h<lU01TPC>TtMRHWP01>BP<7v,0*72
!AIVDM,1,1,,A,13434nP01APCvA8MT3=9O7VBR<54,0*58
!AIVDM,1,1,,A,H3aI9VRm18tq@t0000000000000,2*2F
!AIVDM,1,1,,A,13aFgHhP1DPCfajMSaCBq?vDR<4j,0*2D
!AIVDM,1,1,,A,139eb=0P1M0CMT4MS4K9IgvDPH6E,0*4A
!AIVDM,1,1,,A,H3`dUFDUC=D691m@1kimm00`522t,0*60
!AIVDM,1,1,,A,13aGrOEP0bPCab0MS`Db4?vHRDAH,0*2A
!AIVDM,1,1,,B,13aC2>hP1LPCIGRMS7RrRwvD2D4g,0*38
!AIVDM,1,1,,B,13aENsPP16PC4e0MSrv:Mww0P86a,0*29
!AIVDM,1,1,,A,133i<eP01=0CALnMSGGE=l8H0L9F,0*22
!AIVDM,1,1,,B,B3`elj@0=`4l6MWHsJNv?wUUoP06,0*36
!AIVDM,1,1,,A,H3aI9VTT@<CD9=?@6oiqq01@2220,0*69
!AIVDM,1,1,,B,13aQ7pPP0sPCdoBMSMFRaOvF286v,0*5A
!AIVDM,1,1,,B,B3`gc7@07P4r9T7HnR=gCwV5kP06,0*48
!AIVDM,1,1,,A,140Uw;@P1LPCF=rMS<HKegvJ287p,0*2F
!AIVDM,1,1,,B,13aFdrPP1>PCLEtMSJw:qgvJ2H7w,0*7E
!AIVDM,1,1,,A,B3`oU6000H4cpN7I1coQ3wVQl@83,0*5C
!AIVDM,1,1,,A,13aC4gPP1L0CHT6MONL7awvH00Rq,0*4D
!AIVDM,1,1,,A,13aFfU@P0DPC<>TMSr;4I?vL288?,0*33
!AIVDM,1,1,,B,133uKrP01@PCc3VMSRCRTR6NP@8R,0*05
!AIVDM,1,1,,B,13aGvCCP000CO>PMRUMP0?vN0QEt,0*45
$GPVTG,,T,,M,0.00,N,0.00,K,A*23
$GPGGA,115215.000,5137.2677,N,00416.0307,E,1,19,0.58,3.5,M,47.2,M,,*6E
!AIVDM,1,1,,A,B3aI9VP05P4q`MWHluToswWUoP06,0*7F
$GNGSA,A,3,21,03,02,32,19,14,31,28,17,22,04,,0.84,0.58,0.61,1*03
$GNGSA,A,3,87,65,79,72,80,88,86,71,,,,,0.84,0.58,0.61,2*03
$GPGSV,4,1,14,03,71,254,34,02,65,127,24,21,47,125,32,17,45,292,30,0*6D
$GPGSV,4,2,14,49,30,179,28,19,25,314,29,04,24,183,35,28,17,074,33,0*6E
$GPGSV,4,3,14,32,15,040,29,22,14,275,18,31,09,106,17,14,05,254,25,0*6F
!AIVDM,1,1,,B,H3`gd8TUC=DukQo@7nihn01H040t,0*61
$GPGSV,4,4,14,06,02,297,26,08,01,168,29,0*61
$GLGSV,3,1,09,72,77,070,18,87,64,133,26,88,53,317,24,65,37,210,31,1*73
$GLGSV,3,2,09,71,28,039,31,86,13,135,27,80,11,009,24,79,09,319,16,1*76
$GLGSV,3,3,09,81,02,318,28,1*4A
$GNGLL,5137.2677,N,00416.0307,E,115215.000,A,A*47
$GNRMC,115216.000,A,5137.2677,N,00416.0307,E,0.00,,200724,,,A,V*14
!AIVDM,1,1,,A,H3aI8j0A8D4lE80000000000000,2*3D
!AIVDM,1,1,,A,13aKTmhP00PBvMHMTLlf4?vT20Sb,0*2B
!AIVDM,1,1,,B,33aENKhP0JPBwTTMSovCcgvVR001,0*20
!AIVDM,1,1,,A,B34JdaP0784oml7Hndf`gwaUoP06,0*77
!AIVDM,1,1,,A,13`h<lU01TPC>e>MRIOAKi@VP5K@,0*08
!AIVDM,1,1,,B,139eb=0P1M0CMIpMS3vaIwvVP5K@,0*75
!AIVDM,1,1,,B,13aGEihP0nPCSV2MSL2acOvV2H;V,0*75
!AIVDM,1,1,,B,13aFgHhP1DPCfkrMSaQRswv`R5K@,0*0C
!AIVDM,1,1,,A,B3`oLlh08p4rUe7HqnMoWwb1lD4;,0*08
!AIVDM,1,1,,A,13aIht0P0wPC12pMSqG;FOvD2@;r,0*44
!AIVDM,1,1,,A,B3`dUF@0?84rQu7HQPHswwb1lH;u,0*29
!AIVDM,1,1,,B,13aGrOEP0bPCaTnMS`?:2gvbRLAG,0*11
!AIVDM,1,1,,A,13aDqWPP1>0C<odMR=:7vwvVPL3G,0*0A
!AIVDM,1,1,,A,13aC2>hP1KPCI:fMS7T:a?v`2D4j,0*69
!AIVDM,1,1,,A,13aDB9@P0KPC=PLMSaiE?gvd2D4s,0*0B
!AIVDM,1,1,,A,13aK`5PP00PC2hNMSredOOvf20Rq,0*00
!AIVDM,1,1,,B,13aFfU@P0CPC<A<MSr54Iwvf2@=n,0*60
!AIVDM,1,1,,A,133uKrP01@PCc<nMSR`jUR6hP8>0,0*11
!AIVDM,1,1,,B,H3`oU61LPU@F1=0U8UB2PpjT000,2*14
!AIVDM,1,1,,B,B39DcTP04p4oB?7HnFlo7wd5oP06,0*60
!AIVDM,1,1,,B,140Uw;@P1LPCF1jMS<t;hgvh28>D,0*66
$GPVTG,,T,,M,0.00,N,0.00,K,A*23
$GPGGA,115224.000,5137.2677,N,00416.0307,E,1,17,0.63,3.5,M,47.2,M,,*6A
$GNGSA,A,3,21,03,02,19,14,28,17,22,04,,,,0.90,0.63,0.64,1*08
$GNGSA,A,3,87,65,79,72,80,88,86,71,,,,,0.90,0.63,0.64,2*0B
$GPGSV,4,1,14,03,71,254,34,02,65,127,25,21,47,125,32,17,45,292,26,0*6B
$GPGSV,4,2,14,49,30,179,26,19,25,314,27,04,24,183,34,28,17,074,31,0*6D
$GPGSV,4,3,14,32,15,040,29,22,14,275,19,31,09,106,15,14,05,254,20,0*69
$GPGSV,4,4,14,06,02,297,28,08,01,168,30,0*67
$GLGSV,3,1,09,72,77,070,18,87,63,134,23,88,54,317,23,65,37,210,30,1*77
!AIVDM,1,1,,A,13aGvCCP000CO>`MRUMh0?vj08>f,0*6A
$GLGSV,3,2,09,71,28,039,31,86,13,135,27,80,11,009,24,79,09,319,17,1*77
$GLGSV,3,3,09,81,02,318,31,1*42
$GNGLL,5137.2677,N,00416.0307,E,115224.000,A,A*45
$GNRMC,115225.000,A,5137.2677,N,00416.0307,E,0.00,,200724,,,A,V*14
!AIVDM,1,1,,A,13aLkA0P00PC2DrMSrb=Mgvj2D33,0*27
!AIVDM,1,1,,B,13aEOUPP1OPCEJlMRhg9eOvpRD2j,0*5C
!AIVDM,1,1,,A,13aGEihP0nPCSO0MSKlacwvr2D3w,0*0D
!AIVDM,1,1,,A,13aFgHhP1CPCg0TMSai31?vtR5K@,0*33
!AIVDM,1,1,,A,133i<eP01=0CAcHMSF@5=D8v00SM,0*56
!AIVDM,1,1,,B,B3`emn00004orq7H`AcOOwg5CP06,0*07
!AIVDM,1,1,,B,13`h<lU01TPC>nPMRJJiOABtP5K@,0*4C
!AIVDM,1,1,,A,B3449BP0<84scP7HKT49kwg5oP06,0*26
!AIVDM,1,1,,A,33aGrOEP0bPCaNRMS`7J0gvvR5WS,0*23
!AIVDM,1,1,,A,139eb=0P1M0CM=>MS3KqIwvvP@B;,0*46
!AIVDM,1,1,,B,13aDqWPP1>0C<jtMR<DGtgvtP<3O,0*5B
!AIVDM,1,1,,B,13aQ7pPP0tPCe6pMSMnBdgvv2<>o,0*07
!AIVDM,1,1,,B,13aC2>hP1LPCHtdMS7`rfwvv20R@,0*3D
!AIVDM,1,1,,B,13`luK@P1GPBwiJMSqEbVOw02<4A,0*58
!AIVDM,1,1,,A,B3MBGLP0084og3WHab;Q3wh1nDjb,0*7D
!AIVDM,1,1,,A,13aC4gPP1M0CHLlMOLSo`Ow008CQ,0*32
!AIVDM,1,1,,B,13aFdrPP1>PCL0@MSKA:rww22D54,0*2F
!AIVDM,1,1,,A,140Uw;@P1LPCEopMS=IslOw22<4n,0*05
!AIVDM,1,1,,B,13aDB9@P0MPC=S8MSaNm@Ow42D4s,0*70
!AIVDM,1,1,,A,13aFfU@P0DPC<ChMSqwTKgw42D3w,0*41
$GPVTG,,T,,M,0.00,N,0.00,K,A*23
$GPGGA,115234.000,5137.2677,N,00416.0307,E,1,18,0.60,3.5,M,47.2,M,,*67
$GNGSA,A,3,21,03,02,32,19,14,28,17,22,04,,,0.87,0.60,0.63,1*0B
$GNGSA,A,3,87,65,79,72,80,88,86,71,,,,,0.87,0.60,0.63,2*09
$GPGSV,4,1,14,03,71,254,34,02,65,127,27,21,47,125,33,17,45,292,27,0*69
$GPGSV,4,2,14,49,30,179,26,19,25,314,29,04,24,183,35,28,17,074,32,0*61
$GPGSV,4,3,14,32,15,040,29,22,14,275,23,31,09,106,12,14,05,254,23,0*64
$GPGSV,4,4,14,06,02,297,29,08,01,168,29,0*6E
$GLGSV,3,1,09,72,77,070,17,87,63,134,23,88,54,317,26,65,37,210,31,1*7C
$GLGSV,3,2,09,71,28,039,30,86,13,135,28,80,11,009,23,79,09,319,16,1*7F
$GLGSV,3,3,09,81,02,318,28,1*4A
$GNGLL,5137.2677,N,00416.0307,E,115234.000,A,A*44
$GNRMC,115235.000,A,5137.2677,N,00416.0307,E,0.00,,200724,,,A,V*15
!AIVDM,1,1,,B,13aGvCCP000CO>VMRUN@0?w605K@,0*77
!AIVDM,1,1,,B,B34ImaP07h4p<>7Hn@<?cwjUoP06,0*1C
!AIVDM,1,1,,A,13aEOUPP1OPCE>HMRhFqeOw<RL2k,0*22
!AIVDM,1,1,,A,133vqAPP0jPBvFJMSnF:Ggw<2L3v,0*3F
!AIVDM,1,1,,A,13aDC=hP0JPC2b`MSpdbJOw<R<2h,0*0C
!AIVDM,1,1,,B,13aGEihP0nPCSGvMSKV9c?w>28G4,0*6C
!AIVDM,1,1,,B,B39Fo;P0;P4p8mWHWQuDgwkUoP06,0*5A
!AIVDM,1,1,,A,13`h<lUOiTPC>v<MRK:QQAE>P8G<,0*7B
!AIVDM,1,1,,B,B3`gd8P0084p2r7HWjCQ3wl1nDS:,0*69
!AIVDM,1,1,,B,139eb=0P1M0CM1jMS2vaIww@P5K@,0*01
!AIVDM,1,1,,B,B3`lql@09H4p<kWHi02@Swl1l8Gl,0*65
!AIVDM,1,1,,B,13434nP01APCuh`MT1saOWWBR0Rk,0*68
!AIVDM,1,1,,B,13aGrOEP0aPCaHnMS`09tgwDR0S=,0*77
!AIVDM,1,1,,A,13aC2>hP1KPCHgtMS7frlwwB2@HD,0*6D
!AIVDM,1,1,,B,133i<eP01=0CAkpMSEWm=T9D0HHI,0*6D
!AIVDM,1,1,,A,13aQ7pPP0sPCe>hMSN4Rj?wB2@HL,0*10
!AIVDM,1,1,,A,13aDB9@P0NPC=UvMSaCE@wwF25K@,0*6A
!AIVDM,1,1,,B,13aFfU@P0CPC<F>MSqrDM?wF2<40,0*17
!AIVDM,1,1,,A,13aEOiPP00PC5wpMT09=R?wF28Ig,0*52
!AIVDM,1,1,,B,H34JdaQ`TiB3800000000000000,2*62
!AIVDM,1,1,,B,140Uw;@P1LPCEd2MS>1;rOwH2D4n,0*60
!AIVDM,1,1,,A,13aFdrPP1>PCKlNMSKKbtOwH20SI,0*00
$GPVTG,,T,,M,0.00,N,0.00,K,A*23
$GPGGA,115244.000,5137.2677,N,00416.0307,E,1,18,0.60,3.5,M,47.2,M,,*60
$GNGSA,A,3,21,03,02,32,19,14,28,17,22,04,,,0.87,0.60,0.63,1*0B
!AIVDM,1,1,,A,13aGvCCP000CO>`MRUN@0?wH0IEq,0*7F
$GNGSA,A,3,87,65,79,72,80,88,86,71,,,,,0.87,0.60,0.63,2*09
$GPGSV,4,1,14,03,71,254,34,02,65,127,24,21,47,125,33,17,45,292,29,0*64
!AIVDM,1,1,,A,133uKrP01@PCcRFMSSF2Vj7JP<4@,0*4E
!AIVDM,1,1,,A,H3aB9PDTCBD:ePr@1jklp018112t,0*2C
$GPGSV,4,2,14,49,30,179,25,19,25,314,30,04,24,183,36,28,17,074,31,0*6A
$GPGSV,4,3,14,32,15,040,26,22,14,275,22,31,09,106,,14,05,254,23,0*69
$GPGSV,4,4,14,06,02,297,27,08,01,168,32,0*6A
$GLGSV,3,1,09,72,77,070,18,87,63,134,22,88,54,317,27,65,37,210,30,1*72
!AIVDM,1,1,,B,B3aI9VP06@4qbUWHm0`QCwn5oP06,0*52
$GLGSV,3,2,09,71,28,039,30,86,13,135,29,80,11,009,21,79,09,319,17,1*7D
$GLGSV,3,3,09,81,02,318,29,1*4B
$GNGLL,5137.2677,N,00416.0307,E,115244.000,A,A*43
!AIVDM,1,1,,B,H34ImaPP511V0PuE9<000000000,2*2B
$GNRMC,115245.000,A,5137.2677,N,00416.0307,E,0.00,,200724,,,A,V*12
!AIVDM,1,1,,B,H39Fo;Q=V084iD0000000000000,2*6C
!AIVDM,1,1,,A,13aEOUPP1OPCBr`MRcT9P?w<RD2b,0*54
!AIVDM,1,1,,B,B34ImaP0704pAc7Ho8l@7wk5oP06,0*07
!AIVDM,1,1,,B,B39Fo;P0:P4pHq7HVlE0wwkUoP06,0*3F
!AIVDM,1,1,,B,13aGEihP0nPCR2`MSI3qfww>20T7,0*74
!AIVDM,1,1,,A,13`h<lU01TPC@o`MRSvj3ig>P0SV,0*16
!AIVDM,1,1,,B,139eb=0P1K0CJqvMRu;aMww@P<7u,0*13
!AIVDM,1,1,,A,13aDqWPP1=0C<2vMR2;GkOw<P<3a,0*20
!AIVDM,1,1,,B,B3`lql@0;p4ov97HhJRFowl1l0TF,0*28
!AIVDM,1,1,,B,33aENKhP06PC05@MSp1S<ww@R2w1,0*3A
!AIVDM,1,1,,B,13aGrOEP0aPC`H2MSV<af?wDR8HB,0*6E
!AIVDM,1,1,,A,13aC2>hP1MPCFKRMS;7sQ?wB28HD,0*3E
!AIVDM,1,1,,B,133i<eP01=0CCCvMS>eE7SwD0@HI,0*6B
!AIVDM,1,1,,B,B33rv1P0084q0EWHQ@oQ3wlQnE:J,0*18
!AIVDM,1,1,,A,B3`elj@0=`4khV7HtfC1;wlUoP06,0*4B
!AIVDM,1,1,,A,13aEOiPP00PC5wpMT09=R?wF20SQ,0*76
!AIVDM,1,1,,A,13`luK@P1NPBu9VMSpkbL?wF2D4Q,0*47
!AIVDM,1,1,,A,13aDB9@P0KPC>36MSVQEROwH2@Io,0*13
!AIVDM,1,1,,B,140Uw;@P1KPCCmBMSEdd@?wH2<4j,0*57
!AIVDM,1,1,,A,133uKrP01APCeNfMSW5jhjAJP5KH,0*6C
!AIVDM,1,1,,A,13aGvCCP000CO>RMRUK00?wH05KH,0*73
!AIVDM,1,1,,A,33aFdrPP1?PCIjPMSMTc1?wH2Bmk,0*5A
$GPVTG,,T,,M,0.11,N,0.21,K,A*20
$GPGGA,115445.000,5137.2678,N,00416.0355,E,1,7,1.07,-2.9,M,47.2,M,,*71
$GNGSA,A,3,03,04,02,22,19,21,28,,,,,,1.35,1.07,0.83,1*0F
$GNGSA,A,3,,,,,,,,,,,,,1.35,1.07,0.83,2*08
$GPGSV,4,1,13,03,73,256,35,02,64,128,29,21,46,126,25,17,46,290,22,0*6E
$GPGSV,4,2,13,37,28,158,,19,26,313,32,04,26,183,33,28,17,073,30,0*6E
$GPGSV,4,3,13,32,14,040,,22,13,274,26,31,10,105,24,14,04,253,23,0*62
$GPGSV,4,4,13,06,03,297,28,0*54
$GLGSV,1,1,00,1*78
$GNGLL,5137.2678,N,00416.0355,E,115445.000,A,A*4C
$GNRMC,115446.000,A,5137.2674,N,00416.0349,E,0.14,,200724,,,A,V*1B
!AIVDM,1,1,,B,H39Fo;TUC=D5l3U46kjih0103130,0*43
!AIVDM,1,1,,B,13aEOUPP1PPCBflMRc5aMOwPR5KH,0*4A
!AIVDM,1,1,,B,B3`oLlh08`4rQA7HpMumwwp1l0U4,0*0B
!AIVDM,1,1,,A,13aGEihP0nPCQsTMSHnIfOwR2L4J,0*50
!AIVDM,1,1,,A,13aGrOEP0aPC`C>MSV3Ij?wTRHM>,0*58
!AIVDM,1,1,,A,13aFgHhP1CPCiOFMSdHjwgwRR8M?,0*60
!AIVDM,1,1,,A,133i<eP01=0CCJtMS>CE7CwT00S@,0*27
!AIVDM,1,1,,B,13`h<lU01TPCA3PMRTc25QiTP8MI,0*61
!AIVDM,1,1,,B,B3`dUF@0?`4s5Q7HPpe3Cwq1l0SS,0*6E
!AIVDM,1,1,,A,139eb=0P1K0CJebMRtcaNgwTP5KH,0*06
!AIVDM,1,1,,B,13aENsPP0FPC3=HMSrb:LgvHP5KH,0*5A
!AIVDM,1,1,,B,B34JdaP07`4oVSWHndNbwwqUoP06,0*62
!AIVDM,1,1,,B,13aC2>hP1MPCF?TMS;T;WOwV20RB,0*12
!AIVDM,1,1,,B,13aFdrPP1?PCIanMSMfK1?w`2D4t,0*1C
!AIVDM,1,1,,A,13aFfU@P0UPC<prMSp<Tr?wd20Rg,0*07
!AIVDM,1,1,,B,13aGvCCP000CO>TMRUKP0?wf05KH,0*38
!AIVDM,1,1,,A,33aRtE@P0JPC1QRMSpE3HwvjR5N3,0*4E
!AIVDM,1,1,,A,13aGvCCP000CO>LMRUL00?vn00Rp,0*69
!AIVDM,1,1,,B,13aDC=hP1?PBt4@MSplJKgvpR<2w,0*11
!AIVDM,1,1,,B,B3aU7Q@0=H4rBJWHnkJtgwf1l8@w,0*4D
$GPVTG,,T,,M,0.00,N,0.00,K,A*23
$GPGGA,120129.000,5137.2663,N,00416.0321,E,1,16,0.66,-1.7,M,47.2,M,,*4A
$GNGSA,A,3,03,04,02,22,19,21,28,17,31,06,32,,0.93,0.66,0.66,1*0C
$GNGSA,A,3,86,81,79,88,71,,,,,,,,0.93,0.66,0.66,2*07
$GPGSV,4,1,13,03,75,260,30,02,61,130,25,17,47,287,32,21,43,127,25,0*6A
!AIVDM,1,1,,A,13aGEihP0mPCMULMS?o9V?vr28AJ,0*17
$GPGSV,4,2,13,19,28,312,18,04,28,183,22,28,18,070,20,31,12,103,24,0*6D
$GPGSV,4,3,13,32,12,039,27,22,11,272,25,06,05,298,25,14,02,251,22,0*6B
$GPGSV,4,4,13,36,,,,0*62
$GLGSV,3,1,09,72,74,058,15,87,59,138,25,88,58,316,26,65,41,212,,1*78
!AIVDM,1,1,,A,13aGrOEP0bPCTv4MSODaiwvtR8AS,0*6D
$GLGSV,3,2,09,71,24,039,24,80,12,005,22,86,09,137,26,79,07,316,16,1*7E
$GLGSV,3,3,09,81,06,319,18,1*4C
$GNGLL,5137.2663,N,00416.0321,E,120129.000,A,A*4C
!AIVDM,1,1,,B,13aDqWPP1@0C;ivMQPIFTwvpP8Aa,0*2C
!AIVDM,1,1,,A,139eb=0P1J0CCOFMRdVqRwvtP8Ab,0*35
!AIVDM,1,1,,A,13`fS50P1LPCgwlMSehItOvt28Ag,0*79
!AIVDM,1,1,,A,13434nP01APCloLMSl=r786tRD4i,0*0E
$GNRMC,120130.000,A,5137.2663,N,00416.0321,E,0.00,,200724,,,A,V*14
!AIVDM,1,1,,A,B3`emn00004oroWH`ACOOwg5CP06,0*5A
!AIVDM,1,1,,A,133i<ePPA=0CIS@MS12SRRPv08B;,0*6B
!AIVDM,1,1,,B,33`h<lU01bPCI1rMRnnRg2:vP@<1,0*1B
!AIVDM,1,1,,B,13aC2>hP1CPC@>vMSUUt=gvv2@Bk,0*33
!AIVDM,1,1,,A,33aDB9@P0MPC?lDMSN0mEOw022tQ,0*74
!AIVDM,1,1,,A,13aFfU@P0lPC@afMSdElfww225P4,0*4C
!AIVDM,1,1,,A,140Uw;@P1KPC=flMShVd3?w22D4c,0*68
!AIVDM,1,1,,B,13aEOiPP00PC5wrMT09=R?w22D3w,0*31
!AIVDM,1,1,,B,13aFdrPP1APCBnvMSUv;@gw42@D:,0*41
!AIVDM,1,1,,A,33aBNJE0000C4bhMT5ii>HK20Dp:,0*24
!AIVDM,1,1,,B,B3aHco@07H4lP6WI<g00t5Q5oP06,0*19
!AIVDM,1,1,,A,13aKTmhP00PBvMnMTLk>4?w<2<7v,0*47
!AIVDM,1,1,,B,13aGEihP0mPCMN`MS?WaUgw>2<48,0*56
!AIVDM,1,1,,A,133vqAPP00PBuHfMSmAf4?w>2D3p,0*3B
!AIVDM,1,1,,A,B3`gd8P0084p2p7HWisQ1oCQnDMb,0*48
!AIVDM,1,1,,A,13`h<lU01aPCI>`MRo=Bh29@P5P4,0*60
!AIVDM,1,1,,B,333i<eP01=0CIf8MS14CNjOB07=k,0*0E
!AIVDM,1,1,,B,33`fef000FPBjAHMSu82iRk@00uP,0*73
!AIVDM,1,1,,A,13aIht0P0uPBq60MSrWJT?vv2@Gl,0*13
!AIVDM,1,1,,B,139eb=0P1J0CCBjMRd8qSOw@P@Gs,0*1A
!AIVDM,1,1,,B,13aGrOEP0bPCTp8MSO:IkOwDR0RP,0*21
$GPVTG,,T,,M,0.00,N,0.00,K,A*23
$GPGGA,120141.000,5137.2663,N,00416.0321,E,1,16,0.66,-1.7,M,47.2,M,,*44
$GNGSA,A,3,03,04,02,22,19,21,28,17,31,06,32,,0.93,0.66,0.66,1*0C
$GNGSA,A,3,86,81,79,88,71,,,,,,,,0.93,0.66,0.66,2*07
$GPGSV,4,1,13,03,75,260,31,02,61,130,26,17,47,287,32,21,43,127,25,0*68
!AIVDM,1,1,,B,13`fS50P1MPCgj@MSeNIsOwB2@HK,0*01
$GPGSV,4,2,13,19,28,312,15,04,28,183,20,28,18,070,21,31,12,103,23,0*64
$GPGSV,4,3,13,32,12,039,27,22,11,272,26,06,05,298,25,14,02,251,26,0*6C
$GPGSV,4,4,13,41,,,,0*62
$GLGSV,3,1,09,72,74,058,,87,59,138,26,88,58,316,26,65,41,212,19,1*77
$GLGSV,3,2,09,71,24,039,23,80,12,005,22,86,09,137,27,79,07,316,16,1*78
$GLGSV,3,3,09,81,06,319,21,1*46
!AIVDM,1,1,,A,33aC2>hP1CPC@6LMSV=<=gwB22Qi,0*75
$GNGLL,5137.2663,N,00416.0321,E,120141.000,A,A*42
$GNRMC,120142.000,A,5137.2663,N,00416.0321,E,0.00,,200724,,,A,V*11
!AIVDM,1,1,,B,33aDB9@P0LPC?o>MSMj5DgwF22qQ,0*54
!AIVDM,1,1,,B,140Uw;@P1JPC=TjMSi<d2?wF28IV,0*74
!AIVDM,1,1,,B,13aFfU@P0lPC@hPMSd04igwH2@J1,0*52
!AIVDM,1,1,,A,13aFdrPP1APCBd@MSV@sBOwH28J3,0*2A
!AIVDM,1,1,,A,83aDqehj2d<dtetduR`hqga@4d00,0*59
!AIVDM,1,1,,A,33aRtE@P0FPC1`6MSpH3AOwHR3;A,0*09
!AIVDM,1,1,,B,B3aI9VP08h4rPiWHo:hV?wnUkP06,0*66
!AIVDM,1,1,,A,13aGvCCP000CO>FMRUKh0?wL0HK9,0*37
!AIVDM,1,1,,A,B3`gc7@08h4rPf7Hp=0JKwp5kP06,0*58
!AIVDM,1,1,,A,139eb=0P1J0CC8>MRciaRwwRP0T4,0*7E
!AIVDM,1,1,,B,B34JdaP0884nrrWHnr>hSwpUoP06,0*78
!AIVDM,1,1,,B,13`h<lU01aPCIKDMRoSjh29RP0Sb,0*36
!AIVDM,1,1,,B,H33t;hQ<E8DpUAT000000000000,2*2C
!AIVDM,1,1,,A,13aGEihP0mPCMGlMS?GqUwwR20S2,0*4D
!AIVDM,1,1,,A,13aGrOEP0bPCTk>MSO1IjOwTR8M>,0*5C
!AIVDM,1,1,,A,33434nP01BPClRJMSkqb8`7RR6V3,0*55
!AIVDM,1,1,,B,B3`oLlh0;H4r6IWHoM:pgwpQl8MC,0*75
!AIVDM,1,1,,A,133i<ePPA=0CIpvMS173KBKV0D:3,0*25
!AIVDM,1,1,,B,13aC2>hP1CPC?vdMSVhL=wwT2<4o,0*2D
!AIVDM,1,1,,A,140Uw;@P1JPC=KdMSigsv?w`25P4,0*3E
!AIVDM,1,1,,A,33aDB9@P0NPC?qPMSMU5DOw`2371,0*33
$GPVTG,,T,,M,0.00,N,0.00,K,A*23
$GPGGA,120153.000,5137.2663,N,00416.0321,E,1,16,0.66,-1.7,M,47.2,M,,*47
$GNGSA,A,3,03,04,02,22,19,21,28,17,31,06,32,,0.93,0.66,0.66,1*0C
$GNGSA,A,3,86,81,79,88,71,,,,,,,,0.93,0.66,0.66,2*07
$GPGSV,4,1,13,03,75,260,32,02,61,130,26,17,47,287,32,21,43,127,22,0*6C
$GPGSV,4,2,13,19,28,312,16,04,28,183,24,28,18,070,23,31,12,103,21,0*63
$GPGSV,4,3,13,32,12,039,28,22,11,272,24,06,05,298,26,14,02,251,26,0*62
$GPGSV,4,4,13,45,,,,0*66
$GLGSV,3,1,10,72,73,056,,87,59,138,26,88,58,316,24,65,42,212,,1*7F
$GLGSV,3,2,10,71,23,039,24,80,12,005,22,86,09,137,28,79,07,316,15,1*7C
$GLGSV,3,3,10,81,06,319,21,73,01,053,,1*7D
$GNGLL,5137.2663,N,00416.0321,E,120153.000,A,A*41
!AIVDM,1,1,,B,13aFdrPP1APCBRVMSVR;D?wd28Od,0*5B
$GNRMC,120154.000,A,5137.2663,N,00416.0321,E,0.00,,200724,,,A,V*16
!AIVDM,1,1,,A,13aFfU@P0kPC@n`MScd4j?wd2L45,0*32
!AIVDM,1,1,,A,B3aU7Q@0=H4r>:WHo0Ju;wsQl@Pn,0*41
!AIVDM,1,1,,B,13aGvCCP000CO>RMRUK@0?wh05P4,0*47
!AIVDM,2,1,4,A,53aC2>p000010?GOG00595DE8t0000000000001?@p066uqgr61iCU81,0*22
!AIVDM,2,2,4,A,lSkm13jh0000000,2*19
!AIVDM,1,1,,A,133vqAPP00PBuHjMSmAv4?wl2HRC,0*2B
!AIVDM,1,1,,B,B3`smg007p4tnrWHs;0pOwu1l@RI,0*0A
!AIVDM,1,1,,B,13aGEihP0mPCMA`MS?:9TOwn25P4,0*74
!AIVDM,1,1,,A,83aC2>hj2d<dttdvN2`hq?a@7QL0,0*1C
!AIVDM,1,1,,B,139eb=0P1J0CBtbMRcFIUwwnPHRk,0*71
!AIVDM,1,1,,A,33aDqWPP1@0C;q8MQMqFR?wlP2Oi,0*01
!AIVDM,1,1,,A,13aIht0P0uPBpmVMSrVbN?wT28S6,0*09
!AIVDM,1,1,,B,13434nP01APClG@MSkg:8H7nR@00,0*01
!AIVDM,1,1,,A,13`h<lU01aPCIabMRov2fj60P5P8,0*23
!AIVDM,1,1,,A,13aC2>hP1CPC?n6MSWG<=Ov02D4p,0*00
!AIVDM,1,1,,B,13aGrOEP0bPCTeBMSNnIhwv4RH0n,0*75
!AIVDM,1,1,,B,B3449BP0;`4s967HPlBmkwPUoP06,0*10
!AIVDM,1,1,,A,13`e<H@P1EPCI0`MOevnwwv2R0RL,0*7C
!AIVDM,2,1,5,B,539eb=800000@K?3CT05HU<v0TT000000000001@=h057ur@Q76UjBSQ,0*22
!AIVDM,2,2,5,B,4Q@j50000000000,2*68
$GPVTG,,T,,M,0.00,N,0.00,K,A*23
$GPGGA,120202.000,5137.2663,N,00416.0321,E,1,15,0.67,-1.7,M,47.2,M,,*42
$GNGSA,A,3,03,04,02,22,19,21,28,17,31,06,32,,0.95,0.67,0.67,1*0A
$GNGSA,A,3,86,81,88,71,,,,,,,,,0.95,0.67,0.67,2*0F
!AIVDM,1,1,,B,839eb=0j2d=><<v<t29Pq?bh8ht0,0*17
$GPGSV,4,1,13,03,75,260,31,02,61,130,26,17,47,287,31,21,43,127,24,0*6A
$GPGSV,4,2,13,19,28,312,16,04,28,183,19,28,18,070,24,31,12,103,25,0*6E
$GPGSV,4,3,13,32,12,039,29,22,11,272,24,06,05,298,26,14,02,251,20,0*65
$GPGSV,4,4,13,46,,,,0*65
$GLGSV,3,1,10,72,73,056,,87,59,138,23,88,58,316,23,65,42,212,,1*7D
$GLGSV,3,2,10,71,23,039,24,80,12,004,22,86,09,137,28,81,07,319,21,1*72
$GLGSV,3,3,10,79,06,315,,73,01,053,,1*75
$GNGLL,5137.2663,N,00416.0321,E,120202.000,A,A*46
$GNRMC,120203.000,A,5137.2663,N,00416.0321,E,0.00,,200724,,,A,V*17
!AIVDM,1,1,,B,33aDB9@P0MPC?t6MSMEUE?v622pi,0*18
!AIVDM,1,1,,A,13aFdrPP1APCBGlMSVmcEOv62@26,0*65
!AIVDM,1,1,,B,140Uw;@P1JPC=@DMSjHKrgv62D4c,0*4B
!AIVDM,2,1,6,A,53aRtED000010?OSKT0HE8uP000000000000001?:`045urbb5lSm51D,0*0B
!AIVDM,2,2,6,A,Q0C@00000000000,2*40
!AIVDM,1,1,,B,13aFfU@P0kPC@tlMScIDfOv8282R,0*4E
!AIVDM,1,1,,B,B33dlSP0004ol?WH`vcQ3wR1jDTJ,0*78
!AIVDM,1,1,,A,13aEOiPP00PC5wrMT09=R?v820Sj,0*30
!AIVDM,1,1,,A,13aRtE@P0?PC1eFMSpN39wv:R0Si,0*71
!AIVDM,1,1,,A,B3aI8j00084ou@7H`:KQ3wRQnDhb,0*13
!AIVDM,1,1,,A,B34ImaP05P4pt07HnjTo3wS5oP06,0*78
!AIVDM,1,1,,A,83aRtE@j2d=d<<=dfAb@`?a@7<P0,0*43
!AIVDM,1,1,,B,13aDC=hP1?PBsI8MSp`JKgv>R<2v,0*50
!AIVDM,1,1,,A,B3aBL7h0084oucWH`8T03wSVSP06,0*75
!AIVDM,1,1,,B,B3aBL7h0084oucWH`8T03wSVSP06,0*76
!AIVDM,1,1,,A,H3aBL7i<lThF222222222222220,2*74
!AIVDM,1,1,,B,H3aBL7i<lThF222222222222220,2*77
!AIVDM,1,1,,A,H3aBL7lT80000;M@4lmqnP00000@,0*39
!AIVDM,1,1,,B,H3aBL7lT80000>U@4lmqnP00000@,0*27
!AIVDM,1,1,,B,B3`haQP0084qBcWHRA?Q3wT5oP06,0*1E
$GPVTG,,T,,M,0.00,N,0.00,K,A*23
$GPGGA,120209.000,5137.2663,N,00416.0321,E,1,15,0.67,-1.7,M,47.2,M,,*49
$GNGSA,A,3,03,04,02,22,19,21,28,17,31,06,32,,0.95,0.67,0.67,1*0A
$GNGSA,A,3,86,81,88,71,,,,,,,,,0.95,0.67,0.67,2*0F
!AIVDM,1,1,,B,B3aB9P@0084p6Q7HWNkQ3wTQnDQ:,0*19
$GPGSV,4,1,13,03,75,260,32,02,61,130,27,17,47,287,32,21,43,127,25,0*6A
$GPGSV,4,2,13,19,28,312,13,04,28,183,19,28,18,070,24,31,12,103,24,0*6A
$GPGSV,4,3,13,32,12,039,29,22,11,272,24,06,05,298,26,14,02,251,17,0*61
$GPGSV,4,4,13,47,,,,0*64
$GLGSV,3,1,10,72,73,056,,88,59,316,23,87,58,139,21,65,42,212,,1*7E
$GLGSV,3,2,10,71,23,039,24,80,12,004,22,86,08,138,29,81,07,319,23,1*7F
!AIVDM,1,1,,A,13aGEihP0nPCM:2MS>paTwvB20Rv,0*1E
$GLGSV,3,3,10,79,06,315,,73,01,053,,1*75
!AIVDM,1,1,,A,139eb=0P1J0CBiLMRbtIS?vBP0Rh,0*6A
$GNGLL,5137.2663,N,00416.0321,E,120209.000,A,A*4D
!AIVDM,1,1,,A,13aGrOEP0aPCT`RMSNfah?vDR@5w,0*6C
$GNRMC,120210.000,A,5137.2663,N,00416.0321,E,0.00,,200724,,,A,V*15
!AIVDM,1,1,,A,133i<eP01=0CJ>`MS1@SDBDF0@6D,0*16
!AIVDM,1,1,,A,33434nP01BPCl;2MSkSr886DR3q3,0*1B
!AIVDM,1,1,,B,13aC2>hP1CPC?dTMS`1d=?vF2<4k,0*17
!AIVDM,1,1,,A,B3`fK:h0004q8H7HR:uc7wV5oP06,0*56
!AIVDM,1,1,,A,140Uw;@P1JPC=6rMSjqKqOvJ20SU,0*43
!AIVDM,1,1,,B,13aFdrPP1APCB=8MSW9cGOvJ2087,0*18
!AIVDM,1,1,,A,13aDB9@P0LPC?vjMSM9EE?vL2@8E,0*46
!AIVDM,2,1,5,A,539Hht000000@C?S;N0PDTqb0PtHl4prHm<N221?D`D385kl03c`8888,0*04
!AIVDM,2,2,5,A,888888888888880,2*21
!AIVDM,1,1,,B,13aGFQPP00PBgh>MT3;9D?wT28MV,0*54
!AIVDM,1,1,,B,13aEOT@P0HPC34DMSrKbJOwT2HMj,0*1E
!AIVDM,1,1,,B,B3aC3@h0004c4F7I4cCJkwq5kP06,0*3D
!AIVDM,1,1,,B,13aB:;@P000C7=8MSp7f4?wVPD7u,0*17
!AIVDM,2,1,6,B,53aCp`427qWm0AQH00099Fo;N0DhU<48E@R0000N3h745uPd02@TUBCR,0*06
!AIVDM,2,2,6,B,DliH00000000000,2*28
!AIVDM,1,1,,A,B3aB88P0004bmAWI4BKQ3wqQjE4b,0*01
!AIVDM,1,1,,B,B3`wNB000H4cO37IHPsQ3wqUoP06,0*01
!AIVDM,1,1,,A,13aQdIPP00PBhoDMSts9N?wV2<6@,0*60
!AIVDM,1,1,,B,H3aQPn4UC=D4f2p@6lpmo00`3210,0*13
!AIVDM,1,1,,B,13c1LF8P00PBh2LMT2?f4?w`2D1q,0*4B
$GPVTG,,T,,M,0.00,N,0.00,K,A*23
$GPGGA,164253.000,5141.2010,N,00405.1143,E,1,16,0.68,4.1,M,47.2,M,,*62
!AIVDM,1,1,,A,13c0u600000Bh68MT26QDFUb0l5@,0*70
$GNGSA,A,3,04,07,16,20,09,30,29,05,13,06,11,,0.98,0.68,0.71,1*0E
!AIVDM,1,1,,B,13`evW00000BfqjMT8e;?9Ab00Rm,0*69
$GNGSA,A,3,75,67,66,68,82,,,,,,,,0.98,0.68,0.71,2*0C
!AIVDM,1,1,,A,13bFV:7P00PBhu0MST:ldww`062`,0*78
$GPGSV,3,1,12,07,66,128,30,20,54,294,22,09,49,075,22,11,45,244,25,0*65
$GPGSV,3,2,12,30,45,185,28,05,26,304,30,06,24,199,20,16,14,038,24,0*6A
!AIVDM,1,1,,A,H3aB8T1HDqAE8Ttp00000000000,2*00
!AIVDM,1,1,,A,13`h@47P00PBfSDMT7n>4?wb2D2n,0*16
$GPGSV,3,3,12,04,13,076,27,13,10,253,28,29,08,316,31,51,,,,0*58
$GLGSV,3,1,09,67,65,319,23,66,47,075,27,83,38,296,,77,33,139,16,1*7E
$GLGSV,3,2,09,82,29,243,25,68,19,285,29,75,13,020,23,84,06,353,19,1*75
$GLGSV,3,3,09,65,02,094,15,1*49
$GNGLL,5141.2010,N,00405.1143,E,164253.000,A,A*44
!AIVDM,2,1,7,B,53`g3>D000010C;SS418DpuH5@Tt00000000001I9P:821rcR54k5BDj,0*21
!AIVDM,2,2,7,B,jC0000000000000,2*09
!AIVDM,1,1,,B,83`g3>@j2d<dtMeueQcPegbP6AL0,0*15
$GNRMC,164254.000,A,5141.2010,N,00405.1143,E,0.00,,200724,,,A,V*13
!AIVDM,1,1,,A,13c<c6?0000Bh<rMT1Bh015D062`,0*53
!AIVDM,1,1,,B,B3`gUM00>04a?9WIAF4oOws5oP06,0*13
!AIVDM,1,1,,B,B3aFf<h0;p4cMRWIEJkHows5oP06,0*27
!AIVDM,1,1,,A,13a4;lOP02PBe>BMT@>33?wd28P=,0*1C
!AIVDM,1,1,,B,13aKhR0P000BiPPMScMe=gwd08PC,0*4B
!AIVDM,1,1,,A,13aFg2@00tPBw`<MSopCJ2eb08PQ,0*6F
!AIVDM,1,1,,A,B3aPOih0?@4b>i7I9rq@0wKUCP06,0*2E
!AIVDM,1,1,,A,H3`u4;PlThhUA8tp00000000000,2*35
!AIVDM,1,1,,A,13aFfu00000Bi2DMSuQbFSwj08QO,0*3B
!AIVDM,1,1,,A,H3`elUhHT@E<000000000000000,2*1E
!AIVDM,1,1,,A,13aIkNhP00PBgjpMT31`fOwj262`,0*67
!AIVDM,1,1,,B,13aPMsOP000Bh8:MT1q@0?wj262`,0*72
!AIVDM,1,1,,A,B3`oV<00084c4iWI4P7Q3wtQnE8r,0*2C
!AIVDM,1,1,,A,13`fef0000PBhlBMSvClp9Ql0@R<,0*58
!AIVDM,1,1,,A,H3`elUlTDBE5847@4mojl0182300,0*5C
!AIVDM,1,1,,A,13aEOT@P0FPC31TMSrJrI?wl2D3n,0*2A
!AIVDM,1,1,,A,13`lI4hP0iPC47rMSrkrSwwn2@Rd,0*5A
!AIVDM,1,1,,A,13a3OIwP00PBgu>MT2Dclwv0RL4I,0*5B
!AIVDM,1,1,,A,13aKTmhP00PBvLlMTLe>4?wn2@S4,0*42
!AIVDM,1,1,,A,13aGFQPP00PBgh>MT3;9D?v0215k,0*7E
!AIVDM,1,1,,B,B3`enAh0004bla7I5b;Q3wP1jDVr,0*11
!AIVDM,1,1,,B,H3`g5;4TG4340Ec@9lpjq00p5304,0*59
!AIVDM,1,1,,A,13aB:;@P000C7=6MSp7v4?v2P<7w,0*15
!AIVDM,1,1,,B,13`rCr0P00PBgw<MT2M5U?v42<6J,0*53
$GPVTG,,T,,M,0.00,N,0.00,K,A*23
$GPGGA,164301.000,5141.2010,N,00405.1143,E,1,16,0.68,4.1,M,47.2,M,,*64
$GNGSA,A,3,04,07,16,20,09,30,29,05,13,06,11,,0.98,0.68,0.71,1*0E
$GNGSA,A,3,75,67,66,68,82,,,,,,,,0.98,0.68,0.71,2*0C
$GPGSV,3,1,12,07,66,128,29,20,54,294,20,09,49,075,27,30,46,185,28,0*69
!AIVDM,1,1,,A,H3`fe`DT>F34R;v@5mhpi0104220,0*72
$GPGSV,3,2,12,11,45,244,27,05,26,304,30,06,24,199,23,16,14,038,19,0*65
$GPGSV,3,3,12,04,13,076,21,13,10,253,28,29,08,315,30,48,,,,0*54
$GLGSV,3,1,09,67,65,319,26,66,47,075,26,83,38,296,,77,33,139,20,1*7F
$GLGSV,3,2,09,82,29,243,23,68,19,285,26,75,13,020,24,84,06,353,20,1*71
$GLGSV,3,3,09,65,02,094,16,1*4A
$GNGLL,5141.2010,N,00405.1143,E,164301.000,A,A*42
!AIVDM,2,1,8,A,53c<c600000109EH00099FoC20iD=@u:0EB0DlD04`26540Ht0000000,0*65
!AIVDM,2,2,8,A,000000000000008,2*24
$GNRMC,164302.000,A,5141.2010,N,00405.1143,E,0.00,,200724,,,A,V*11
!AIVDM,1,1,,B,13c0u600000Bh68MT26d4nT60V2d,0*52
!AIVDM,1,1,,B,13a4;lOP01PBe>BMT@>00?v62<1T,0*43
!AIVDM,1,1,,A,13`evW00000BfqnMT8dIhI@60<1O,0*22
!AIVDM,1,1,,A,B3`iEF00004bgc7I5;ECwwQUkP06,0*40
!AIVDM,1,1,,A,13c1LF8P00PBh2PMT2?v4?v62<1p,0*6A
!AIVDM,1,1,,B,B39UmnP0?p4ipFWHvN0tCwR1n5;1,0*1A
!AIVDM,1,1,,B,B3`dVPh0004bQo7I5RGQ3wR1jDIb,0*4B
!AIVDM,1,1,,A,13P=eF@P00PBhtnMSta@0?v8282q,0*59
!AIVDM,1,1,,B,13bFV:7P00PBhu0MST:ldwv600RP,0*7A
!AIVDM,1,1,,B,K3aPOOSh9T3j=POt,0*35
!AIVDM,1,1,,B,13aFg2@00tPBwhPMSorCHjd60<?q,0*4E
!AIVDM,2,1,9,B,53c<c600000109EH00099FoC20iD=@u:0EB0DlD04`26540Ht0000000,0*67
!AIVDM,2,2,9,B,000000000000008,2*26
!AIVDM,1,1,,A,B3aC2nh08p4cP97IDO?HkwS1lD4J,0*2D
!AIVDM,1,1,,B,13aCp`0P00PBhk>MSv>h0?v>20Rr,0*01
!AIVDM,1,1,,B,139Hht0P010But:MSmco8gv:P@4?,0*15
!AIVDM,1,1,,B,33aEQ55P00PBhkLMSWH>4?v>2DHr,0*6D
!AIVDM,1,1,,B,13aFfu00000Bi2FMSuQJFSv@0<;k,0*73
!AIVDM,1,1,,B,33aIkNhP00PBgjpMT31`fOv>22iS,0*5F
!AIVDM,1,1,,A,B39mpTP0084bs;7I53oQ3wT1nDb:,0*44
!AIVDM,1,1,,B,13`lI4hP0hPC41lMSrkr`gv@2D6P,0*18
$GPVTG,,T,,M,0.00,N,0.00,K,A*23
$GPGGA,164308.000,5141.2010,N,00405.1143,E,1,16,0.68,4.1,M,47.2,M,,*6D
$GNGSA,A,3,04,07,16,20,09,30,29,05,13,06,11,,0.98,0.68,0.71,1*0E
$GNGSA,A,3,75,67,66,68,82,,,,,,,,0.98,0.68,0.71,2*0C
$GPGSV,3,1,12,07,66,128,32,20,54,294,20,09,49,075,24,30,46,185,27,0*6F
$GPGSV,3,2,12,11,45,244,28,05,26,304,30,06,24,199,17,16,14,038,24,0*63
$GPGSV,3,3,12,04,13,076,23,13,10,253,28,29,08,315,33,50,,,,0*5C
!AIVDM,1,1,,A,H3`u4;TUC=D4E2V@7kooj01@0210,0*5D
$GLGSV,3,1,09,67,65,319,26,66,47,075,29,83,38,296,,77,33,139,19,1*7A
$GLGSV,3,2,09,82,29,243,22,68,19,285,30,75,13,020,24,84,06,353,18,1*7C
!AIVDM,1,1,,B,13aEOT@P0DPC2vNMSrIrFwv@20Se,0*01
$GLGSV,3,3,09,65,02,094,16,1*4A
$GNGLL,5141.2010,N,00405.1143,E,164308.000,A,A*4B
$GNRMC,164309.000,A,5141.2010,N,00405.1143,E,0.00,,200724,,,A,V*1A
!AIVDM,1,1,,A,H3`orBQ<U8Dr118Tp<E=<000000,2*32
!AIVDM,1,1,,B,B3aH2:P0004bR=7I5TgQ3wTQjDEJ,0*65
!AIVDM,1,1,,A,B342QnP01`4c@m7II=C2wwTQl<4<,0*03
!AIVDM,1,1,,B,13a3OIwP00PBgu@MT2DckgvDR85e,0*1C
!AIVDM,1,1,,A,13`rCr0P00PBgw:MT2MEU?vD285k,0*70
!AIVDM,1,1,,B,13aKTmhP00PBvLbMTLcN4?vB2@5m,0*2B
!AIVDM,1,1,,A,13aN3WwP000BcCdMTCdf4?vD085q,0*53
!AIVDM,1,1,,B,13aGFQPP00PBgh>MT3;9D?vD286R,0*3A
!AIVDM,1,1,,A,13aGt?0P1LPCJf2MRrLjWOvH2<3t,0*7D
!AIVDM,1,1,,B,13bG1P70000Bh;:MT1Eeg0rJ00T5,0*79
!AIVDM,1,1,,A,13`h@47P00PBfRjMT7pf4?vH2@7G,0*7C
!AIVDM,1,1,,B,13c1LF8P00PBh2TMT2?>4?vH262d,0*46
!AIVDM,1,1,,A,13aQdIPP00PBhoDMSts9N?vF2<6D,0*75
!AIVDM,1,1,,A,B3aNaCh0AP4Wnr7IAidqcwV5oP06,0*61
!AIVDM,1,1,,A,H3`hnp@luHD0000000000000000,2*1C
!AIVDM,1,1,,A,13c0u600000Bh66MT26V>FTJ0d5@,0*22
!AIVDM,1,1,,A,13c<c6?0000Bh<tMT1C@01420<1j,0*08
!AIVDM,1,1,,B,H3`dckhHthTDdD0000000000000,2*6C
!AIVDM,1,1,,B,13`evW00000BfqpMT8cds9@L0D1O,0*7C
!AIVDM,1,1,,B,H33nCKTT>F36b@2?@Pknjh183220,0*44
!AIVDM,1,1,,A,13a4;lOP020Be>BMT@>00?vL2<1W,0*5A
!AIVDM,1,1,,B,13aKhR0P000BiPLMScKe=?vL0H8c,0*18
$GPVTG,,T,,M,0.00,N,0.00,K,A*23
$GPGGA,164315.000,5141.2010,N,00405.1143,E,1,17,0.66,4.1,M,47.2,M,,*6E
$GNGSA,A,3,04,07,16,20,09,30,29,05,13,06,11,,0.97,0.66,0.71,1*0F
!AIVDM,1,1,,A,33bFV:7P00PBhu0MST:ldwvL00CC,0*03
$GNGSA,A,3,75,83,67,66,68,82,,,,,,,0.97,0.66,0.71,2*06
$GPGSV,3,1,12,07,66,128,31,20,54,294,20,09,49,075,27,30,46,185,26,0*6E
$GPGSV,3,2,12,11,45,244,27,36,28,155,,05,26,304,29,06,24,199,24,0*65
$GPGSV,3,3,12,16,14,038,23,04,13,076,20,13,10,253,27,29,08,315,33,0*6D
$GLGSV,3,1,09,67,65,319,27,66,47,075,32,83,38,296,20,77,33,139,19,1*73
$GLGSV,3,2,09,82,29,243,25,68,19,285,30,75,13,020,17,84,06,353,16,1*75
$GLGSV,3,3,09,65,02,094,16,1*4A
$GNGLL,5141.2010,N,00405.1143,E,164315.000,A,A*47
$GNRMC,164316.000,A,5141.2010,N,00405.1143,E,0.00,,200724,,,A,V*14
!AIVDM,1,1,,A,13aCp`0P00PBhk@MSv>h0?vP2<2q,0*7D
!AIVDM,1,1,,A,13aFfu00000Bi2FMSuQJFSvR0D;m,0*1C
!AIVDM,1,1,,B,13aPMsOP000Bh8:MT1q@0?vP2<1o,0*4F
!AIVDM,1,1,,A,H39Ke90PTLR0pttp00000000000,2*5B
!AIVDM,1,1,,A,13aIkNhP00PBgjpMT31`fOvR28:C,0*7B
!AIVDM,2,1,0,A,53bFV:82<ak10<P4001@SCR1HTE:0LD98tD@E9<N4H66440Ht2U23k1C,0*17
!AIVDM,2,2,0,A,P00000000000008,2*4C
!AIVDM,1,1,,A,13`fef0000PBhlDMSvChoaNT00Sh,0*1F
!AIVDM,1,1,,A,13`lI4hP0ePC3rdMSrmJWgvT2@:m,0*72
!AIVDM,1,1,,A,13a3OIwP00PBgu:MT2BKkgvVR@:r,0*39
!AIVDM,1,1,,A,B33nCKP0084blS7I4IU@3wa5oP06,0*3C
!AIVDM,1,1,,B,B3`jg6@0;H4cL87IF47HSwaUoP06,0*75
!AIVDM,1,1,,A,B3`orBP00`4cew7I8vh=owaUoP06,0*6D
!AIVDM,1,1,,B,1341ThP01?PCED4MS9lDdkVT00RG,0*41
!AIVDM,1,1,,A,13aKTmhP00PBvLLMTLbf4?vV2D7w,0*27
!AIVDM,1,1,,B,13aN3WwP000BcCdMTCdf4?v`0D52,0*4B
!AIVDM,1,1,,A,13aEOT@P0APC2sJMSrHbFwv`262d,0*51
!AIVDM,1,1,,A,H3`dVPh55D5HU@E=<F374000000,2*2B
!AIVDM,1,1,,A,B3`e7mP0084c;RWI4:?Q3wb1nD`b,0*1F
!AIVDM,1,1,,B,13`rCr0P00PBgw<MT2MEU?vd2<6K,0*72
$GPVTG,,T,,M,0.00,N,0.00,K,A*23
!AIVDM,1,1,,A,13aGFQPP00PBgh>MT3;9D?vb2@<a,0*5E
$GPGGA,164321.000,5141.2010,N,00405.1143,E,1,16,0.68,4.1,M,47.2,M,,*66
$GNGSA,A,3,04,07,20,09,30,29,05,13,06,11,,,0.99,0.68,0.72,1*0B
$GNGSA,A,3,75,83,67,66,68,82,,,,,,,0.99,0.68,0.72,2*05
$GPGSV,3,1,12,07,66,128,31,20,54,294,18,09,49,075,23,30,46,185,21,0*66
$GPGSV,3,2,12,11,45,244,28,36,28,155,29,05,26,304,29,06,24,199,20,0*65
!AIVDM,1,1,,A,13aB:;@P000C7=:MSp6N4?vbP0R;,0*55
$GPGSV,3,3,12,16,14,038,17,04,13,076,19,13,10,253,28,29,08,315,34,0*68
$GLGSV,3,1,09,67,65,319,25,66,47,075,31,83,38,296,16,77,33,139,19,1*77
$GLGSV,3,2,09,82,29,243,25,68,19,285,31,75,13,020,22,84,06,353,17,1*73
$GLGSV,3,3,09,65,02,094,17,1*4B
$GNGLL,5141.2010,N,00405.1143,E,164321.000,A,A*40
$GNRMC,164322.000,A,5141.2010,N,00405.1143,E,0.00,,200724,,,A,V*13
!AIVDM,1,1,,B,13c0u600000Bh68MT26RMnRd0l5@,0*50
!AIVDM,1,1,,B,13aQdIPP00PBhoDMSts9N?vb262d,0*7C
!AIVDM,1,1,,A,B3449BP0084beB7I4rJ8wwc5oP06,0*10
!AIVDM,1,1,,A,B3aRsIh00@4cIKWIHl`cSwcUoP06,0*31
!AIVDM,1,1,,A,13c1LF8P00PBh2VMT2?>4?vf2@=j,0*1E
!AIVDM,1,1,,B,13bFV:7P00PBhu0MST:ldwvd0D5D,0*2F
!AIVDM,1,1,,B,13`h@47P00PBfS>MT7p>4?vf20RO,0*41
!AIVDM,1,1,,A,13P=eF@P00PBhufMSt`@0?vf28=w,0*06
!AIVDM,1,1,,A,13bG1P70000Bh;>MT1EKkhrh0@>4,0*3D
!AIVDM,1,1,,A,H3`orBTT>F34R3L@9oihp01P1220,0*07
!AIVDM,1,1,,B,13c<c6?0000Bh<RMT1C@014H08>8,0*0E
!AIVDM,1,1,,A,13`evW00000BfqnMT8cKaa@h0@>:,0*5E
!AIVDM,1,1,,A,B3aFf<h0;`4cLM7IEiwHcwd5oP06,0*6E
!AIVDM,1,1,,B,H3`dcklTC=D5sM3@1loli0181220,0*27
!AIVDM,1,1,,A,13aKhR0P000BiP4MScGe@wvh00Sf,0*68
!AIVDM,1,1,,B,13a4;lOP010Be>>MT@>P0?vh262d,0*58
!AIVDM,1,1,,A,13aEOiPP00PC5wpMT09MR?vj28>p,0*6F
!AIVDM,1,1,,B,B3aPOih0?P4bCi7I9V9Am0<UCP06,0*40
!AIVDM,1,1,,B,13aFg2@00tPC01BMSovCL2ff0H>u,0*38
!AIVDM,1,1,,A,B3`gUM00=P4aDwWIAF`oGwdUoP06,0*6D
!AIVDM,1,1,,B,13aCp`0P00PBhk@MSv>h0?vj20Rj,0*33
$GPVTG,,T,,M,0.00,N,0.00,K,A*23
$GPGGA,164326.000,5141.2010,N,00405.1143,E,1,17,0.66,4.1,M,47.2,M,,*6E
$GNGSA,A,3,04,07,16,20,09,30,29,05,13,06,11,,0.97,0.66,0.71,1*0F
$GNGSA,A,3,75,83,67,66,68,82,,,,,,,0.97,0.66,0.71,2*06
$GPGSV,3,1,12,07,66,128,30,20,54,294,19,09,49,075,21,30,46,185,29,0*6C
!AIVDM,1,1,,B,13aIkNhP00PBgjpMT31`fOvl28?d,0*64
$GPGSV,3,2,12,11,45,244,29,36,28,155,28,05,26,304,29,06,24,199,19,0*6F
$GPGSV,3,3,12,16,14,038,21,04,13,076,25,13,10,253,30,29,08,315,34,0*6B
$GLGSV,3,1,09,67,65,319,25,66,47,075,29,83,38,296,16,77,33,139,15,1*72
$GLGSV,3,2,09,82,29,243,20,68,19,285,31,75,13,020,22,84,06,353,17,1*76
$GLGSV,3,3,09,65,02,094,17,1*4B
$GNGLL,5141.2010,N,00405.1143,E,164326.000,A,A*47
!AIVDM,1,1,,A,13aPMsOP000Bh84MT1q@0?vl262d,0*7C
!AIVDM,1,1,,B,13aFfu00000Bi2HMSuQ:FSvp062d,0*31
$GNRMC,164327.000,A,5141.2010,N,00405.1143,E,0.00,,200724,,,A,V*16
!AIVDM,2,1,1,B,53bG1P42<;oq0I@j221<j3;>04h85A8u>222220N287436Lb0<Tm1C31,0*30
!AIVDM,2,2,1,B,CQ0CH8888888888,2*3F
!AIVDM,1,1,,A,H39Ke94UC=D6lPKD5CD0001P4220,0*4A
!AIVDM,1,1,,B,B3aBLFh00@4cDoWI3e;Q3weQjDwJ,0*68
!AIVDM,1,1,,B,13aKTmhP00PBvLRMTLcv4?vp2<7v,0*74
!AIVDM,1,1,,B,13`fef0000PBhlDMSvCi;INp0D39,0*00
!AIVDM,1,1,,B,13a3OIwP00PBgu0MT2AsfwvrR62d,0*5A
!AIVDM,1,1,,B,13`lI4hP0aPC3l8MSrmbU?vr20R=,0*2B
!AIVDM,1,1,,A,13`rCr0P00PBgw<MT2MEU?vt20SR,0*11
!AIVDM,1,1,,A,13aN3WwP000BcCdMTCdf4?vt00S0,0*4C
!AIVDM,1,1,,B,H3aD@=4UC=D4:a1@2jmnk00h932t,0*57
!AIVDM,1,1,,B,13aGFQPP00PBgh>MT3;9D?vt2D35,0*14
!AIVDM,1,1,,B,13aB:;@P000C7=:MSp6N4?vvP62d,0*7B
!AIVDM,1,1,,A,13aQdIPP00PBhoDMSts9N?vt20S=,0*57
!AIVDM,1,1,,A,13`h@47P00PBfSDMT7ov4?w020S;,0*4D
!AIVDM,1,1,,A,13c<c6?0000Bh<8MT1B@014b08CI,0*40
!AIVDM,1,1,,B,13c1LF8P00PBh2HMT2>v4?w02@CN,0*47
!AIVDM,1,1,,A,13c0u600000Bh68MT26o96U20PRr,0*7A
!AIVDM,1,1,,B,13`evW00000BfqtMT8cKo9A200Rt,0*18
!AIVDM,1,1,,B,13bG1P70000Bh;<MT1E;Fhs4062d,0*16
!AIVDM,1,1,,B,H3`kDbDTCBD77QU@6ppkq00h613t,0*66
!AIVDM,1,1,,A,13a4;lOP020Be>>MT@>P0?w22D1c,0*75
!AIVDM,1,1,,B,13P=eF@P00PBhvBMStU00?w22<1w,0*3A
!AIVDM,1,1,,A,13bFV:7P00PBhu0MST:ldww2062d,0*2E
!AIVDM,1,1,,A,B39UmnP0?`4ivt7HvLhoowi1lL4=,0*73
!AIVDM,1,1,,B,B3aC2nh09p4cOG7IDiCISwi1l0T5,0*7C
$GPVTG,,T,,M,0.00,N,0.00,K,A*23
$GPGGA,164334.000,5141.2010,N,00405.1143,E,1,17,0.66,4.1,M,47.2,M,,*6D
$GNGSA,A,3,04,07,16,20,09,30,29,05,13,06,11,,0.97,0.66,0.71,1*0F
$GNGSA,A,3,75,83,67,66,68,82,,,,,,,0.97,0.66,0.71,2*06
!AIVDM,1,1,,A,13aFg2@00tPC08lMSp03JRfv0D?r,0*49
$GPGSV,3,1,12,07,66,128,30,20,54,294,19,09,49,075,22,30,46,185,26,0*60
$GPGSV,3,2,12,11,45,244,27,36,28,155,25,05,26,304,29,06,24,199,25,0*63
$GPGSV,3,3,12,16,14,038,21,04,13,076,17,13,10,253,31,29,08,315,33,0*6C
$GLGSV,3,1,09,67,66,321,32,66,46,076,21,83,38,296,16,77,33,139,,1*72
$GLGSV,3,2,09,82,29,243,22,68,20,286,28,75,13,020,25,84,06,353,17,1*72
$GLGSV,3,3,09,65,01,095,,1*4F
$GNGLL,5141.2010,N,00405.1143,E,164334.000,A,A*44
!AIVDM,1,1,,B,H3`wnv4T>1F93?0@5kili01@1220,0*4F
$GNRMC,164335.000,A,5141.2010,N,00405.1143,E,0.00,,200724,,,A,V*15
!AIVDM,1,1,,B,H3a3?`0h4AV0P4hiT0000000000,2*2B
!AIVDM,1,1,,B,H3`e<P4UC=D6j6?@5jnio01H533t,0*46
!AIVDM,1,1,,A,H3`enAlTCBD:B2`@3qlqq018113t,0*30
!AIVDM,1,1,,A,13aIkNhP00PBgjpMT31`fOw62@EC,0*19
!AIVDM,1,1,,B,13aPMsOP00PBh84MT1q@0?w828EL,0*1B
!AIVDM,1,1,,A,13aFfu00000Bi2BMSuQ:FSw:0@EP,0*46
!AIVDM,1,1,,A,H3`ogu4TCBD:<3b@3omhi00p531t,0*71
!AIVDM,1,1,,B,B3a3WdP0004c>J7I<k:r7wjUCP06,0*7D
!AIVDM,1,1,,A,B3`wieh0084bs2WI5<SQ0vBUoP06,0*76
!AIVDM,1,1,,B,B33dbIP0084bnA7I51OQ3whUoP06,0*1D
!AIVDM,1,1,,A,13`lI4hP0WPC3gbMSrmbTgw:2D6O,0*3D
!AIVDM,1,1,,B,13aEOPPP00PBiPfMScG;jww<262d,0*54
!AIVDM,1,1,,A,13a3OIwP00PBgtvMT2CKd?w<R62d,0*21
!AIVDM,1,1,,B,1341ThP01?PCEVDMS924W3S:00Ss,0*38
!AIVDM,1,1,,A,13`fef0000PBhlDMSvCjNaO<062d,0*3E
!AIVDM,1,1,,A,13aEOT@P0=PC2oDMSrFrHgw>2<3p,0*7F
!AIVDM,1,1,,A,13aKTmhP00PBvLVMTLdN4?w>2@G4,0*4D
!AIVDM,1,1,,A,H3`e7mQ8u<4hTD0000000000000,2*5C
!AIVDM,1,1,,B,33P=?i@OhD0A;r4MfPI=Qh3:00u0,0*4B
!AIVDM,1,1,,B,H3aPOnA=@E8p000000000000000,2*4D
!AIVDM,1,1,,B,H39UmnQHE84pv0UH00000000000,2*78
!AIVDM,1,1,,B,33aI9e5P00PBfJDMT8P7`gw>2DEb,0*17
$GPVTG,,T,,M,0.00,N,0.00,K,A*23
$GPGGA,164340.000,5141.2010,N,00405.1143,E,1,16,0.68,4.1,M,47.2,M,,*61
$GNGSA,A,3,04,07,16,20,09,30,29,05,13,06,11,,0.98,0.68,0.71,1*0E
$GNGSA,A,3,75,67,66,68,82,,,,,,,,0.98,0.68,0.71,2*0C
$GPGSV,3,1,12,07,66,128,28,20,54,294,18,09,49,075,26,30,46,185,25,0*6F
!AIVDM,1,1,,B,B342QnP00p4c@J7II>RlCwl1n0hA,0*39
$GPGSV,3,2,12,11,45,244,26,36,28,155,26,05,26,304,31,06,24,199,19,0*67
!AIVDM,1,1,,B,H3aRsIi<thT@u80000000000000,2*75
$GPGSV,3,3,12,16,14,038,20,04,13,076,20,13,10,253,30,29,08,315,33,0*68
$GLGSV,3,1,09,67,66,321,29,66,46,076,25,83,38,296,,77,33,139,,1*7B
!AIVDM,1,1,,B,13`rCr0P00PBgwFMT2L5U?wB262d,0*7F
$GLGSV,3,2,09,82,29,243,21,68,20,286,29,75,13,020,22,84,06,353,18,1*78
$GLGSV,3,3,09,65,01,095,16,1*48
$GNGLL,5141.2010,N,00405.1143,E,164340.000,A,A*47
!AIVDM,1,1,,A,33aGFQPP00PBgh>MT3;9D?w@22ok,0*54
$GNRMC,164341.000,A,5141.2010,N,00405.1143,E,0.00,,200724,,,A,V*16
!AIVDM,1,1,,A,13aB:;@P000C7=0MSp5f4?wBP<7v,0*71
!AIVDM,1,1,,B,H3aPOnDU0000000@3npqp01P3220,0*51
!AIVDM,1,1,,B,13aQdIPP00PBhoDMSts9N?wB2<6J,0*7D
!AIVDM,1,1,,A,B3`or?P0@`4WIGWIA11:Owm1n5Ti,0*5F
!AIVDM,1,1,,A,13c1LF8P00PBh2BMT2?>4?wD2HHs,0*4D
!AIVDM,1,1,,A,B3`hB0@0004bo77I4?cQ3wm1jE=:,0*24
!AIVDM,1,1,,A,13bG1P70000Bh;6MT1E;m@sF0@Hw,0*71
!AIVDM,1,1,,B,13c0u600000Bh66MT26hNnUD0`I2,0*42
!AIVDM,1,1,,B,13`h@47P00PBfRrMT7q>4?wD2<2v,0*7B
!AIVDM,1,1,,A,13`evW00000BfqlMT8cdhaAF00Sa,0*13
!AIVDM,2,1,2,B,53aMu:42<3tq0I9V22099Fo?J0`tP4ppE>0<u:0N487735QV020TUBCR,0*6C
!AIVDM,2,2,2,B,DliH88888888880,2*2C
!AIVDM,1,1,,B,B3aNaCh0B@4WvjWIAflqwwmUoP06,0*59
!AIVDM,1,1,,B,13c<c6?0000Bh<8MT1AP0150062d,0*51
!AIVDM,1,1,,B,13aFg2@00sPC0A8MSp1kNBgD08J0,0*55
!AIVDM,1,1,,B,13bFV:7P00PBhu0MST:ldwwF08J2,0*79
!AIVDM,1,1,,A,13P=eF@P00PBhv>MStS00?wH20Rn,0*4F
!AIVDM,1,1,,A,B3`hUE000@4csC7I0h=3Kwn5kP06,0*2A
!AIVDM,1,1,,A,13aOB`k001PB<J<Mr<9uoPOT08JC,0*40
!AIVDM,1,1,,B,13a4;lOP01PBe>>MT@>P0?wJ2<1d,0*12
!AIVDM,1,1,,B,13aCp`0P00PBhkLMSv@@0?wJ2<2t,0*3A
!AIVDM,1,1,,A,B39FcRP0004bpH7I4<WQ3wnQjAu:,0*78
!AIVDM,1,1,,B,B3`dUW@0084bswWI4d3Q3wnQnDgb,0*00
!AIVDM,1,1,,A,83ITh400G@:?>G1?6600,0*19
!AIVDM,1,1,,B,H342QnPlU=A84h0000000000000,2*24
!AIVDM,1,1,,A,B3`i6Nh0004bfu7I4W?Q3wo1jDAb,0*5F
$GPVTG,,T,,M,0.00,N,0.00,K,A*23
$GPGGA,164346.000,5141.2010,N,00405.1143,E,1,16,0.68,4.1,M,47.2,M,,*67
!AIVDM,1,1,,B,B3aIiIh00P4bhbWI4nJ5OwnUkP06,0*3D
$GNGSA,A,3,04,07,16,20,09,30,29,05,13,06,11,,0.98,0.68,0.71,1*0E
$GNGSA,A,3,75,67,66,68,82,,,,,,,,0.98,0.68,0.71,2*0C
$GPGSV,3,1,12,07,66,128,27,20,54,294,19,09,49,075,22,30,46,185,26,0*66
$GPGSV,3,2,12,11,45,244,29,37,28,158,,05,26,304,30,06,24,199,20,0*6B
$GPGSV,3,3,12,16,14,038,29,04,13,076,22,13,10,253,31,29,08,315,33,0*62
!AIVDM,1,1,,B,13aFfu00000Bi2DMSuPrFSwN062d,0*4B
$GLGSV,3,1,09,67,66,321,27,66,46,076,28,83,38,296,,77,34,138,17,1*78
$GLGSV,3,2,09,82,29,243,21,68,20,286,29,75,12,019,19,84,06,353,17,1*74
$GLGSV,3,3,09,65,01,095,13,1*4D
$GNGLL,5141.2010,N,00405.1143,E,164346.000,A,A*41
!AIVDM,1,1,,B,13aIkNhP00PBgjpMT31`fOwL28Ka,0*34
$GNRMC,164347.000,A,5141.2010,N,00405.1143,E,0.00,,200724,,,A,V*10
!AIVDM,1,1,,B,B3a3F=00084c@UWI4<3Q3woUoP06,0*04
!AIVDM,1,1,,A,H33n3uPlTht0000000000000000,2*30
!AIVDM,1,1,,B,13`fef0000PBhlDMSvCjn9ON0<3:,0*62
!AIVDM,1,1,,B,13`lI4hP0TPC3bFMSrmJQ?wP262d,0*5E
!AIVDM,2,1,3,A,53P=eFD000038Q1C800hT4nm200000000000000l0`C34ueB07PTUBCR,0*1C
!AIVDM,2,2,3,A,DliH88888888000,2*2E
!AIVDM,1,1,,A,1341ThP01?PCEgvMS8alUCON0D3M,0*02
!AIVDM,1,1,,B,13a3OIwP00PBgtlMT2Eca?wRR0SU,0*2B
!AIVDM,1,1,,B,H3aVN7R08thhF22222222222220,2*78
!AIVDM,1,1,,B,B3`gavh0004c9TWI4>f`owp5oP06,0*50
!AIVDM,1,1,,B,13aKTmhP00PBvLPMTLbf4?wR20S8,0*62
!AIVDM,1,1,,A,H3`i39i0hEP5@00000000000000,2*0D
!AIVDM,1,1,,A,H3aB8T4TCBD:P2@@8pijq00h813t,0*73
!AIVDM,1,1,,A,13aN3WwP000BcCdMTCdf4?wT0@MR,0*61
!AIVDM,1,1,,B,13aGFQPP00PBgh>MT3;9D?wT262d,0*17
!AIVDM,1,1,,A,H3`jMJA`tlE8PUA@F3:s0000000,2*1E
!AIVDM,1,1,,B,13aB:;@P000C7<tMSp5v4?wVP@Mr,0*31
!AIVDM,1,1,,A,13`rCr0P00PBgw@MT2LEU?w`20SI,0*62
!AIVDM,1,1,,A,H3aH2:P55D5HU@E=<F378000000,2*3C
!AIVDM,1,1,,B,H3aVN7TT1=30000P@3nolq10304t,0*52
!AIVDM,1,1,,B,H3aC3@h8iDF08E99T0000000000,2*2F
!AIVDM,1,1,,A,B3a3Ha@0004csrWI0ecQ3wqQjDUJ,0*26
!AIVDM,1,1,,A,13aQdIPP00PBhoDMSts9N?wV28NU,0*09
$GPVTG,,T,,M,0.00,N,0.00,K,A*23
$GPGGA,164352.000,5141.2010,N,00405.1143,E,1,17,0.66,4.1,M,47.2,M,,*6D
!AIVDM,1,1,,B,13bG1P70000Bh:vMT1E<B@sb08Nn,0*58
$GNGSA,A,3,04,07,16,20,09,30,29,05,13,06,11,,0.97,0.66,0.71,1*0F
$GNGSA,A,3,75,83,67,66,68,82,,,,,,,0.97,0.66,0.71,2*06
$GPGSV,3,1,12,07,66,128,28,20,54,294,21,09,49,075,23,30,46,185,23,0*66
$GPGSV,3,2,12,11,45,244,27,33,28,204,,05,26,304,26,06,24,199,22,0*6E
$GPGSV,3,3,12,16,14,038,28,04,13,076,24,13,10,253,31,29,08,315,34,0*62
$PAINF,A,0x22*59
$PAINF,B,0x1b*09
$GLGSV,3,1,09,67,66,321,27,66,46,076,27,83,38,295,18,77,34,138,19,1*73
$GLGSV,3,2,09,82,28,243,24,68,20,286,26,75,12,019,19,84,07,353,16,1*7F
$GLGSV,3,3,09,65,01,095,,1*4F
$GNGLL,5141.2010,N,00405.1143,E,164352.000,A,A*44
!AIVDM,1,1,,B,13c1LF8P00PBh2:MT2>>4?w`2@O=,0*52
$GNRMC,164353.000,A,5141.2010,N,00405.1143,E,0.00,,200724,,,A,V*15
!AIVDM,1,1,,B,13P=eF@P00PBhv0MStQh0?wb20T2,0*68
!AIVDM,1,1,,A,13c0u600000Bh66MT26PnnSb0hOH,0*0D
!AIVDM,1,1,,A,13bFV:7P00PBhu0MST:ldww`00S@,0*3F
!AIVDM,1,1,,A,13`h@47P00PBfSFMT7pN4?wb2@OS,0*3E
!AIVDM,1,1,,A,H3aQ7;PmTHhuL00000000000000,2*13
!AIVDM,1,1,,A,B3`wnv00004bfp7I4q>USwrUoP06,0*72
!AIVDM,1,1,,B,H3aC3@lT0000000@8kjpp01H3310,0*36
!AIVDM,1,1,,B,B3aFf<h0;`4cK>WIF9?H3ws5oP06,0*25
!AIVDM,1,1,,A,13c<c6?0000Bh<@MT1Bh015D00Rs,0*14
!AIVDM,1,1,,B,B3a3c@00104cE77I3vVssws5oP06,0*64
!AIVDM,1,1,,A,33a4;lOP000Be>>MT@>P0?wd20S3,0*65
!AIVDM,1,1,,B,13aKhR0P000BiPVMScFe>Owd062d,0*26
!AIVDM,1,1,,B,B3`gUM00=h4aJ`7IAFLpkwsUoP06,0*27
!AIVDM,1,1,,A,13aCp`0P00PBhkFMSv@@0?wf28PL,0*41
!AIVDM,1,1,,A,13aFg2@00rPC0INMSp43H2e`062d,0*06
!AIVDM,1,1,,A,B3`e;sh0004bq4WI5HoQ3wsQjGJJ,0*47
!AIVDM,1,1,,A,B3aPOih0?@4bHgWI9B1BI3sUCP06,0*41
!AIVDM,1,1,,A,13aFfu00000Bi2DMSuQ:FT1j062d,0*64
!AIVDM,1,1,,A,13aIkNhP00PBgjpMT31`fOwj20Rd,0*05
!AIVDM,1,1,,B,13aPMsOP000Bh84MT1q@0?wj20Rj,0*10
!AIVDM,2,1,4,A,53a4;lD000010SGWS@0hT8E9@D0000000000000U10713t0Ht0;@0000,0*2E
!AIVDM,2,2,4,A,000000000000008,2*28
!AIVDM,1,1,,A,B3`f?i@0004cUDWI2EcQ3wu1jDqr,0*47
!AIVDM,1,1,,A,13a3OIwP00PBgtNMT2DcUOv0RHRg,0*67
$GPVTG,,T,,M,0.00,N,0.00,K,A*23
$GPGGA,164359.000,5141.2010,N,00405.1143,E,1,17,0.66,4.1,M,47.2,M,,*66
!AIVDM,1,1,,B,B3aGv<00004btC7I4r803wuUCP06,0*18
$GNGSA,A,3,04,07,16,20,09,30,29,05,13,06,11,,0.97,0.66,0.71,1*0F
$GNGSA,A,3,75,83,67,66,68,82,,,,,,,0.97,0.66,0.71,2*06
!AIVDM,1,1,,A,13aGFQPP00PBgh>MT3;9D?wn2D34,0*0D
$GPGSV,3,1,12,07,66,128,31,20,54,294,19,09,49,075,23,30,46,185,25,0*63
!AIVDM,1,1,,B,13aN3WwP000BcCdMTCdf4?wn08S7,0*5B
$GPGSV,3,2,12,11,45,244,26,33,28,204,,05,26,304,27,06,24,199,21,0*6D
$GPGSV,3,3,12,16,14,038,28,04,13,076,22,13,10,253,29,29,08,315,33,0*6A
$GLGSV,3,1,09,67,66,321,26,66,46,076,25,83,38,295,18,77,34,138,19,1*70
$GLGSV,3,2,09,82,28,243,24,68,20,286,27,75,12,019,22,84,07,353,17,1*77
$GLGSV,3,3,09,65,01,095,17,1*49
$GNGLL,5141.2010,N,00405.1143,E,164359.000,A,A*4F
$GNRMC,164400.000,A,5141.2010,N,00405.1143,E,0.00,,200724,,,A,V*14
!AIVDM,1,1,,A,B3`ogu00084bqRWI4wgQ3wP1nE9:,0*51
!AIVDM,2,1,5,A,53aGFQT000010S?OGP1I8thT`dF1HU=<E800000t2@623uic030TUBCR,0*43
!AIVDM,2,2,5,A,Dli@00000000000,2*20
!AIVDM,1,1,,A,B3`e<P00004cC>WI45sQ1bP1jDPb,0*07
!AIVDM,1,1,,A,13aB:;@P000C7<hMSp7>4?v2P80l,0*1A
!AIVDM,1,1,,B,13`rCr0P00PBgw:MT2M5U?v4280p,0*6D
!AIVDM,1,1,,B,H33kc>TTC=D4V9F?Akipq00p504t,0*34
!AIVDM,1,1,,B,B3`fLgh0004bR87I5TCQ3wPQjDgJ,0*56
!AIVDM,1,1,,B,33aQdIPP00PBhoDMSts9N?v220fk,0*73
!AIVDM,1,1,,B,B3`ekkh0084cNK7IHiWQ3wQ1nDfr,0*10
!AIVDM,1,1,,B,13c<c6?0000Bh<@MT1CP015T00SD,0*08
!AIVDM,1,1,,A,13bG1P70000Bh:vMT1Ds@hr60H1p,0*7B
!AIVDM,1,1,,A,H3`jMJDT>F34bws@2oool01P1400,0*7C
!AIVDM,1,1,,B,13c0u600010Bh66MT26TRVR60PS;,0*0D
!AIVDM,1,1,,A,13`evW00000Bfq`MT8cqgI@6082>,0*6A
!AIVDM,1,1,,B,13bFV:7P00PBhu0MST:ldwv40<5F,0*05
!AIVDM,2,1,6,A,53c0u641t9Dm0<T`00099Fo7:1LthHE9BpI84pdN3@:436C<02QRDj2C,0*69
!AIVDM,2,2,6,A,Qp1lSmCQ4h00000,2*2E
!AIVDM,1,1,,B,B3?s<vP0084bui7I4P7Q3wR1nDs:,0*48
!AIVDM,1,1,,A,B3`dckh00H4cAl7I3glLKwR5oP06,0*69
!AIVDM,1,1,,B,H3aUDKDT0000000@8ohlm01H1130,0*71
!AIVDM,1,1,,A,13P=eF@P00PBhutMStOP0?v8262h,0*6B
!AIVDM,1,1,,B,H39FcRPhDpTD000000000000000,2*3E
!AIVDM,1,1,,A,B3:0u:P0084c9I7I49s8owR5oP06,0*23
!AIVDM,1,1,,A,13aKhR0P000BiP4MScHe;gv80D<P,0*71
!AIVDM,1,1,,B,H3aHp@P4j0<u9@TLv2222222220,2*27
!AIVDM,1,1,,B,13aFg2@00pPC0QRMSp63HRd40838,0*67
$GPVTG,,T,,M,0.00,N,0.00,K,A*23
$GPGGA,164405.000,5141.2010,N,00405.1143,E,1,16,0.68,4.1,M,47.2,M,,*67
$GNGSA,A,3,04,07,16,20,09,30,29,05,13,06,11,,0.98,0.68,0.71,1*0E
$GNGSA,A,3,75,67,66,68,82,,,,,,,,0.98,0.68,0.71,2*0C
$GPGSV,3,1,12,07,66,128,31,20,54,294,17,09,49,075,24,30,46,185,30,0*6E
$GPGSV,3,2,12,11,45,244,28,39,27,154,,05,26,304,29,06,24,199,24,0*6B
!AIVDM,1,1,,A,B3`fvF00084buT7I4pGQ10RUoP06,0*0D
$GPGSV,3,3,12,16,14,038,19,04,13,076,25,13,10,253,31,29,08,315,32,0*67
$GLGSV,3,1,09,67,66,321,27,66,46,076,21,83,38,295,14,77,34,138,19,1*79
$GLGSV,3,2,09,82,28,243,21,68,20,286,27,75,12,019,20,84,07,353,18,1*7F
$GLGSV,3,3,09,65,01,095,14,1*4A
$GNGLL,5141.2010,N,00405.1143,E,164405.000,A,A*41
$GNRMC,164406.000,A,5141.2010,N,00405.1143,E,0.00,,200724,,,A,V*12
!AIVDM,1,1,,A,B3aC2nh09p4cNHWIE6OHowS1n5;i,0*70
!AIVDM,1,1,,B,13aCp`0P00PBhkPMSv@@0?v<2D30,0*6C
!AIVDM,1,1,,B,B3`jEVh0004c>JWI<mluKwS5oP06,0*03
!AIVDM,2,1,7,B,53aQdI`2=wtM08QH001TG;C>0=8D4@4r0h4AT00N10T6440004VUjBSQ,0*64
!AIVDM,2,2,7,B,4Q@j50000000000,2*6A
!AIVDM,1,1,,B,H3`wNB08iDF0h4Lttp000000000,2*44
!AIVDM,1,1,,B,13aFfu00000Bi2LMSuQ:FT0@084a,0*49
!AIVDM,1,1,,B,33aIkNhP00PBgjpMT31`fOv>22iS,0*5F
!AIVDM,1,1,,B,13`fef0000PBhlFMSvD3D9N@0D3:,0*63
!AIVDM,1,1,,A,H3`hnpDUCBD:mS1@4jqlo018112t,0*39
!AIVDM,1,1,,A,B342QnP00H4c@<7II?3Q3wTQl85b,0*75
!AIVDM,1,1,,B,13a3OIwP00PBgtFMT2AsQ?vDR62h,0*68
!AIVDM,1,1,,A,13`rCr0P00PBgw6MT2MEU?vD262h,0*76
!AIVDM,1,1,,B,13aKTmhP00PBvL`MTLdN4?vB2<7w,0*4A
!AIVDM,1,1,,B,13aEOT@P0;PC2j8MSrFJLOvB2L42,0*5F
!AIVDM,1,1,,A,13aN3WwP000BcCdMTCdf4?vD062h,0*43
!AIVDM,1,1,,B,B3ITh4000@4cA1WI3KfvNH502h06,0*6B
!AIVDM,1,1,,B,13aB:;@P000C7<nMSp7v4?vDP0Sf,0*40
!AIVDM,1,1,,B,13aGFQPP00PBgh>MT3;9D?vD262h,0*0A
!AIVDM,1,1,,B,B3`or?P0AH4WOIWI@j59CwUQl@6n,0*66
!AIVDM,1,1,,B,B34JdaP0084c9T7I40UvOwV5oP06,0*46
!AIVDM,1,1,,A,H3`oV<0<tq@E=<4000000000000,2*03
!AIVDM,1,1,,B,B33otlP0084c7lWI4HOQ3wV1nDk:,0*50
$GPVTG,,T,,M,0.00,N,0.00,K,A*23
!AIVDM,1,1,,A,B3aN4@P0004bq;WI4u;Q3wV1jDuJ,0*77
$GPGGA,164412.000,5141.2010,N,00405.1143,E,1,16,0.68,4.1,M,47.2,M,,*61
!AIVDM,1,1,,A,13`h@47P00PBfSFMT7pv4?vH2<2t,0*0B
$GNGSA,A,3,04,07,16,20,09,30,29,05,13,06,11,,0.98,0.68,0.71,1*0E
$GNGSA,A,3,75,67,66,68,82,,,,,,,,0.98,0.68,0.71,2*0C
!AIVDM,1,1,,B,H3`emmhHu@tp000000000000000,2*78
$GPGSV,3,1,12,07,66,128,31,20,54,294,17,09,49,075,28,30,46,185,30,0*62
$GPGSV,3,2,12,11,45,244,29,05,26,304,31,06,24,199,21,16,14,038,22,0*60
!AIVDM,1,1,,A,13aQdIPP00PBhoDMSts9N?vF287R,0*66
$GPGSV,3,3,12,04,13,076,25,13,10,253,30,40,09,114,,29,08,315,31,0*6D
$GLGSV,3,1,09,67,66,321,29,66,46,076,17,83,38,295,,77,34,138,19,1*77
$GLGSV,3,2,09,82,28,243,26,68,20,286,29,75,12,019,16,84,07,353,18,1*73
$GLGSV,3,3,09,65,01,095,,1*4F
$GNGLL,5141.2010,N,00405.1143,E,164412.000,A,A*47
!AIVDM,1,1,,B,H3aB88Q`DE=@E:0000000000000,2*7D
!AIVDM,1,1,,A,13c0u600000Bh68MT26Fr6RJ0`7o,0*2F
$GNRMC,164413.000,A,5141.2010,N,00405.1143,E,0.00,,200724,,,A,V*16
!AIVDM,1,1,,B,B3aQPn000@4cP=7I<vOQ3wVUkP06,0*40
!AIVDM,1,1,,A,B3aNaCh0B04`6@7IAcTsGwVUoP06,0*23
!AIVDM,1,1,,B,13bG1P70000Bh;0MT1DsCPrL0@8:,0*35
!AIVDM,1,1,,A,13c<c6?0000Bh<FMT1DP0142088A,0*0B
!AIVDM,1,1,,B,13P=eF@P00PBhulMStO00?vL262h,0*64
!AIVDM,1,1,,A,13a4;lOP010Be>4MT@?P0?vL288b,0*76
!AIVDM,1,1,,B,13aKhR0P000BiP2MScI=8?vL0D<P,0*02
!AIVDM,1,1,,A,13bFV:7P00PBhu0MST:ldwvL089:,0*0A
!AIVDM,1,1,,A,13aCp`0P00PBhkRMSv?h0?vP289e,0*75
!AIVDM,1,1,,A,13aFfu00000Bi2JMSuQ:FT0R0@9v,0*3C
!AIVDM,1,1,,B,13aPMsOP000Bh84MT1q@0?vP28:1,0*10
!AIVDM,1,1,,B,B33fd5P0084bmnWI54KQ3w`5oP06,0*40
!AIVDM,1,1,,B,B3`jg6@0;`4cJCWIFhKIWw`UoP06,0*64
!AIVDM,1,1,,A,H3`dVPlUC=D5N56@8lqil00`522t,0*65
!AIVDM,1,1,,B,H3`wNB4UC=D5N6s@7qnln0101210,0*79
!AIVDM,1,1,,B,B3a3Or000P4co1WI8NWQ3wa1jDfJ,0*2A
!AIVDM,1,1,,B,H3aPOiiA8u21@58@00000000000,2*10
!AIVDM,1,1,,B,1341ThP01>PCF=lMS7RDLSFR0<3O,0*31
!AIVDM,1,1,,B,H3aPOilTF5C@5B0@5koni01P1400,0*64
!AIVDM,1,1,,A,13a3OIwP00PBgtBMT2@;QOvVR<4N,0*6E
!AIVDM,1,1,,A,33:5575wh00BSWVMfIP9BjJT0C@b,0*7D
!AIVDM,1,1,,A,13`fef0000PBhlFMSvD2C9NV0@;9,0*7F
!AIVDM,1,1,,B,B3`f;0000@4bhDWI56Hv7waUoP06,0*3D
$GPVTG,,T,,M,0.00,N,0.00,K,A*23
$GPGGA,164419.000,5141.2010,N,00405.1143,E,1,17,0.66,4.1,M,47.2,M,,*65
$GNGSA,A,3,04,07,16,20,09,30,29,05,13,06,11,,0.97,0.66,0.71,1*0F
!AIVDM,1,1,,A,B3aB8T00084btM7I4qWQ3waQnD`J,0*36
$GNGSA,A,3,75,83,67,66,68,82,,,,,,,0.97,0.66,0.71,2*06
$GPGSV,3,1,12,07,66,128,31,20,54,294,18,09,49,075,29,30,46,185,30,0*6C
$GPGSV,3,2,12,11,45,244,27,05,26,304,29,06,24,199,21,16,14,038,20,0*65
$GPGSV,3,3,12,04,13,076,25,13,10,253,29,40,09,114,,29,08,315,30,0*64
$GLGSV,3,1,09,67,66,321,29,66,46,076,18,83,38,295,20,77,34,138,18,1*7B
$GLGSV,3,2,09,82,28,243,25,68,20,286,27,75,12,019,17,84,07,353,18,1*7F
$GLGSV,3,3,09,65,01,095,18,1*46
$GNGLL,5141.2010,N,00405.1143,E,164419.000,A,A*4C
!AIVDM,1,1,,A,13aB:;@P000C7<vMSp7v4?v`PL7w,0*76
!AIVDM,1,1,,B,13aN3WwP000BcCdMTCdf4?v`0@;q,0*02
!AIVDM,1,1,,A,H3`or?PI8DF1=0U8U@000000000,2*4A
$GNRMC,164420.000,A,5141.2010,N,00405.1143,E,0.00,,200724,,,A,V*16
!AIVDM,1,1,,A,B3aQ7;P00@4bl67I4DsQ3wb1jDeb,0*65
!AIVDM,1,1,,B,B3`wilP00H4biQ7I4wfgWwb5oP06,0*42
!AIVDM,1,1,,B,13`rCr0P00PBgw4MT2MEU?vd28<L,0*73
!AIVDM,1,1,,B,B3`o0ph0084cTm7I2=?4KwbUoP06,0*6D
!AIVDM,1,1,,A,13aGFQPP00PBgh>MT3;9D?vb2<36,0*7A
!AIVDM,1,1,,B,13aQdIPP00PBhoDMSts9N?vb20S?,0*40
!AIVDM,1,1,,A,13c1LF8P00PBh2LMT2=N4?vf2<1p,0*1C
!AIVDM,1,1,,B,13bFV:7P00PBhu0MST:ldwvd0@=r,0*15
!AIVDM,1,1,,A,13bG1P70000Bh;8MT1EKu0rh0<9k,0*59
!AIVDM,1,1,,B,13c<c6?0000Bh<HMT1DP014F062h,0*5F
!AIVDM,1,1,,A,13`evW00000BfqRMT8crVa@h0<1N,0*6B
!AIVDM,1,1,,A,B3aFf<h0;H4cJ@WIFP?Iswd5oP06,0*4E
!AIVDM,1,1,,B,13a4;lOP010Be>4MT@?P0?vh20S8,0*68
!AIVDM,1,1,,A,H3`gUM0>N0E=B0h61HTD0000000,2*3D
!AIVDM,1,1,,B,13aCp`0P00PBhkPMSv?P0?vj2H>n,0*0A
!AIVDM,1,1,,B,13aFg2@00lPC0hvMSp;CFRdd0D?q,0*7C
!AIVDM,1,1,,A,13aKhR0P000BiP2MScIe6Ovj0L<O,0*16
!AIVDM,1,1,,B,13aIkNhP00PBgjpMT31`fOvl262h,0*6B
!AIVDM,1,1,,B,13aFfu00000Bi2HMSuQ:FT0p00SH,0*3B
!AIVDM,2,1,8,B,53aI9e4000010KKG;<1<`58Tp4000000000000001P<23t0Ht3hTUBCR,0*44
!AIVDM,2,2,8,B,Dli@00000000000,2*2E
$GPVTG,,T,,M,0.00,N,0.00,K,A*23
$GPGGA,164427.000,5141.2010,N,00405.1143,E,1,16,0.68,4.1,M,47.2,M,,*67
$GNGSA,A,3,04,07,16,20,09,30,29,05,13,06,11,,0.98,0.68,0.71,1*0E
$GNGSA,A,3,75,67,66,68,82,,,,,,,,0.98,0.68,0.71,2*0C
$GPGSV,3,1,12,07,66,128,30,20,54,294,18,09,49,075,29,30,46,185,24,0*68
$GPGSV,3,2,12,11,45,244,25,05,26,304,30,06,24,199,16,16,14,038,27,0*6C
!AIVDM,1,1,,B,B3aPOih0?@4bM;7I8oQHU4eUCP06,0*30
$GPGSV,3,3,12,04,13,076,26,13,10,253,28,29,08,315,32,44,08,113,,0*66
$GLGSV,3,1,09,67,66,321,28,66,46,076,19,83,38,295,12,77,34,138,18,1*7A
$GLGSV,3,2,09,82,28,243,28,68,20,286,27,75,12,019,19,84,07,353,,1*75
$GLGSV,3,3,09,65,01,095,17,1*49
$GNGLL,5141.2010,N,00405.1143,E,164427.000,A,A*41
!AIVDM,1,1,,A,B3`f8w00004cOc7I2VWQ3wf1jDdb,0*42
$GNRMC,164428.000,A,5141.2010,N,00405.1143,E,0.00,,200724,,,A,V*1E
!AIVDM,1,1,,B,13`fef0000PBhlFMSvD3W9Np0@@h,0*65
!AIVDM,1,1,,A,H34Ld4PM8EV0Ltu<F0000000000,2*46
!AIVDM,1,1,,B,13a3OIwP00PBgt@MT2A;O?vrR0Rt,0*74
!AIVDM,1,1,,A,B3`fe`@0084btA7I5:@:wwfUoP06,0*4E
!AIVDM,1,1,,A,H34Ld4TUFC@D2cm?@qqhq01H240<,0*6C
!AIVDM,1,1,,A,13aN3WwP000BcCdMTCdf4?vt0@AV,0*48
!AIVDM,1,1,,A,13`rCr0P00PBgw4MT2MEU?vv2@Am,0*46
!AIVDM,1,1,,A,B3`qK8P0084c007I4a803wg5oP06,0*06
!AIVDM,1,1,,B,13aEOT@P0:PC2g2MSrFbNgvt262h,0*4B
!AIVDM,1,1,,B,13aGFQPP00PBgh>MT3;9D?vt2@B9,0*6D
!AIVDM,1,1,,B,13aB:;@P000C7<rMSp7N4?vvP0S;,0*0B
!AIVDM,1,1,,A,13aQdIPP00PBhoDMSts9N?vt2<6I,0*4A
!AIVDM,1,1,,B,H3a3?`4TCBD;16A@4pjmk01@122t,0*67
!AIVDM,1,1,,A,B3`jMJ@00p4cIT7I9oDV;wh5oP06,0*32
!AIVDM,1,1,,A,13`h@47P00PBfSrMT7q>4?w02@CB,0*34
!AIVDM,1,1,,B,H3`o0pi@uT00000000000000000,2*2B
!AIVDM,1,1,,A,13c<c6?0000Bh<LMT1Dh014`062h,0*46
!AIVDM,1,1,,B,13`evW00000BfqRMT8cqF9A20HCJ,0*7A
!AIVDM,1,1,,B,13c1LF8P00PBh2dMT2=v4?w02<1p,0*58
!AIVDM,1,1,,B,13bG1P70000Bh;8MT1Ebnhs400RI,0*28
!AIVDM,1,1,,A,13a4;lOP020Be>4MT@?P0?w22@Cg,0*0C
!AIVDM,1,1,,B,13P=eF@P00PBhuTMStR@0?w228Cn,0*37
!AIVDM,1,1,,A,13bFV:7P00PBhu0MST:ldww200Rs,0*5F
!AIVDM,1,1,,A,B39UmnP0?`4j;w7HvMlpKwi1lHD7,0*7E
$GPVTG,,T,,M,0.00,N,0.00,K,A*23
$GPGGA,164434.000,5141.2010,N,00405.1143,E,1,16,0.68,4.1,M,47.2,M,,*65
$GNGSA,A,3,04,07,16,20,09,30,29,05,13,06,11,,0.98,0.68,0.71,1*0E
!AIVDM,1,1,,A,13aFg2@00jPC0oHMSp=SDjg00@DE,0*70
!AIVDM,1,1,,B,B3`emmh00@4cJ<7IHpSQ3wi1jDj:,0*7E
$GNGSA,A,3,75,67,66,68,82,,,,,,,,0.98,0.68,0.71,2*0C
$GPGSV,3,1,12,07,66,126,29,20,54,294,18,09,48,076,31,30,46,185,28,0*69
!AIVDM,1,1,,B,H3`wilQHE=0E800000000000000,2*62
$GPGSV,3,2,12,11,45,244,24,36,28,155,,05,27,304,30,06,23,198,21,0*6C
$GPGSV,3,3,12,16,14,038,26,04,12,076,25,13,10,253,27,29,08,315,30,0*6F
$GLGSV,3,1,09,67,66,321,28,66,46,076,18,83,38,295,,77,34,138,18,1*78
$GLGSV,3,2,09,82,28,243,27,68,20,286,29,75,12,019,17,84,07,353,,1*7A
$GLGSV,3,3,09,65,01,095,18,1*46
$GNGLL,5141.2010,N,00405.1143,E,164434.000,A,A*43
$GNRMC,164435.000,A,5141.2010,N,00405.1143,E,0.00,,200724,,,A,V*12
!AIVDM,1,1,,A,H3`e7mTUCBD:TP`@2lpli00`722t,0*50
!AIVDM,1,1,,B,13aKhR0P000BiPhMScIu:gw60D<P,0*31
!AIVDM,1,1,,B,B3`elUh0004cN97IHmD03wiUoP06,0*7E
!AIVDM,1,1,,A,H3`gUM4T47I67Tw@3pmkk0103130,0*14
!AIVDM,1,1,,B,B3aC2nh09p4cMS7IEIKI7wiQlHE3,0*28
!AIVDM,1,1,,B,H3`f8w0@DPhT<TuE<0000000000,2*29
!AIVDM,1,1,,B,B3`ekVP0084cEVWI3UkQ3wiQnDrr,0*54
!AIVDM,1,1,,A,13aIkNhP00PBgjpMT31`fOw62<3f,0*36
!AIVDM,1,1,,B,13aPMsOP000Bh84MT1q@0?w8262h,0*26
!AIVDM,1,1,,A,13aFfu00000Bi2FMSuQ:FT1:0<<:,0*6C
!AIVDM,1,1,,A,13aCp`0P00PBhkLMSv?P0?w82HE`,0*33
!AIVDM,1,1,,A,139Hht0P010ButBMSmcGCww6P@Ee,0*0B
!AIVDM,1,1,,A,13`lI4hP0KPC3ErMSrq:Lww:2@F1,0*55
!AIVDM,1,1,,A,13a3OIwP00PBgtbMT2EKJ?w<R0SH,0*56
!AIVDM,1,1,,A,13aEOT@P0:PC2ehMSrFJGgw>28G0,0*59
!AIVDM,1,1,,A,13aKTmhP00PBvLHMTLef4?w>2<7w,0*35
!AIVDM,1,1,,B,1341ThP01>PCFS2MS6olESC<0D3Q,0*11
!AIVDM,1,1,,A,B3`u4;P0084cND7I2CGQ3wl5oP06,0*45
!AIVDM,1,1,,B,B342QnP00H4c@G7II?OQ3wl1nDVr,0*24
!AIVDM,1,1,,B,13`rCr0P00PBgw6MT2MEU?wB20S6,0*4B
!AIVDM,1,1,,A,13aGFQPP00PBgh>MT3;9D?w@20S5,0*36
$GPVTG,,T,,M,0.00,N,0.00,K,A*23
!AIVDM,1,1,,B,13aN3WwP000BcCdMTCdf4?wB08HE,0*1E
$GPGGA,164441.000,5141.2010,N,00405.1143,E,1,16,0.68,4.1,M,47.2,M,,*67
!AIVDM,1,1,,A,13aB:;@P000C7<rMSp9v4?wBP8HH,0*6B
$GNGSA,A,3,04,07,16,20,09,30,29,05,13,06,11,,0.98,0.68,0.71,1*0E
$GNGSA,A,3,75,67,66,68,82,,,,,,,,0.98,0.68,0.71,2*0C
$GPGSV,3,1,12,07,66,126,33,20,54,294,16,09,48,076,30,30,46,185,28,0*6D
!AIVDM,1,1,,A,H3aC2nhlE8=T000000000000000,2*01
$GPGSV,3,2,12,11,45,243,22,36,28,155,28,05,27,304,31,06,23,198,24,0*63
$GPGSV,3,3,12,16,14,038,21,04,12,076,26,13,11,253,30,29,08,315,30,0*6C
$GLGSV,3,1,09,67,66,321,28,66,46,076,21,83,38,295,,77,34,138,18,1*72
$GLGSV,3,2,09,82,28,243,25,68,20,286,31,75,12,019,19,84,07,353,,1*7F
$GLGSV,3,3,09,65,01,095,15,1*4B
$GNGLL,5141.2010,N,00405.1143,E,164441.000,A,A*41
!AIVDM,1,1,,B,13aQdIPP00PBhoDMSts9N?wB28Hh,0*25
!AIVDM,1,1,,A,B3`or?P0A84WV7WI@RE5kwm1n4wQ,0*4E
$GNRMC,164442.000,A,5141.2010,N,00405.1143,E,0.00,,200724,,,A,V*12
!AIVDM,1,1,,B,B3`oTJ00084bnqWI4cQ?Swm5oP06,0*66
!AIVDM,1,1,,A,13c1LF8P00PBh2NMT2@N4?wD2D1p,0*38
!AIVDM,1,1,,B,H3`jg6@D4LhD000000000000000,2*67
!AIVDM,1,1,,A,13bG1P70000Bh;<MT1F<LhsF0<9m,0*61
!AIVDM,1,1,,B,13c0u600000Bh68MT26BRVSD0V2h,0*53
!AIVDM,1,1,,B,H3`o0plTC=D4L2L@5olim01H0310,0*2C
!AIVDM,1,1,,B,B3`f3p00084bv47I549<kwmUoP06,0*6A
!AIVDM,1,1,,B,13c<c6?0000Bh<HMT1Dh014v00S1,0*69
!AIVDM,1,1,,A,13P=eF@P00PBhulMStT00?wH2<22,0*29
!AIVDM,1,1,,B,13aFg2@00hPC0uTMSp?kEBgB062h,0*3B
!AIVDM,1,1,,B,13bFV:7P00PBhu0MST:ldwwF062h,0*55
!AIVDM,1,1,,A,H33n3uTUCBD8A1P?Akmph00p522t,0*4B
!AIVDM,1,1,,B,H3`i6NhQTLLD000000000000000,2*34
!AIVDM,1,1,,B,B3aNaCh0B@4`>GWIAW8tSwnUoP06,0*4C
!AIVDM,1,1,,B,13aCp`0P00PBhkNMSv?h0?wJ28Jc,0*04
!AIVDM,1,1,,A,13aKhR0P000BiQ@MScK=?OwJ0D<P,0*00
!AIVDM,1,1,,B,H3`wilTTC=D5s5@@8kipk00`5030,0*42
!AIVDM,1,1,,A,B33q9g00004cBm7I3jcQ3wo5kP06,0*05
!AIVDM,1,1,,B,13aFfu00000Bi2FMSuQ:FT1N00Sj,0*28
!AIVDM,1,1,,B,13aIkNhP00PBgjpMT31`fOwL262h,0*4A
!AIVDM,1,1,,A,13aPMsOP00PBh7rMT1qP0?wN20RU,0*31
!AIVDM,1,1,,B,B3`e<d00084buR7I52cQ3woUoP06,0*7C
!AIVDM,1,1,,B,13`lI4hP0GPC3?fMSrobPwwP20Rv,0*27
!AIVDM,1,1,,A,H3aH2:TUC=D6>=H@1liol00h522t,0*64
!AIVDM,1,1,,A,1341ThP01>PCFd:MS6W4CkAN0@LF,0*6F
!AIVDM,1,1,,A,13aEOPPP00PBiPnMScGs`gwR28LG,0*30
$GPVTG,,T,,M,0.00,N,0.00,K,A*23
$GPGGA,164448.000,5141.2010,N,00405.1143,E,1,16,0.68,4.1,M,47.2,M,,*6E
$GNGSA,A,3,04,07,16,20,09,30,29,05,13,06,11,,0.98,0.68,0.71,1*0E
$GNGSA,A,3,75,67,66,68,82,,,,,,,,0.98,0.68,0.71,2*0C
$GPGSV,3,1,12,07,66,126,34,20,55,294,17,09,48,076,31,30,46,185,27,0*64
$GPGSV,3,2,12,11,45,243,22,37,28,158,,05,27,304,31,06,23,198,18,0*6A
$GPGSV,3,3,12,16,14,038,20,04,12,076,26,13,11,253,30,29,08,315,31,0*6C
$GLGSV,3,1,09,67,66,321,29,66,46,076,24,83,38,295,,77,34,138,19,1*77
$GLGSV,3,2,09,82,28,243,26,68,20,286,32,75,12,019,17,84,07,353,,1*71
$GLGSV,3,3,09,65,01,095,,1*4F
$GNGLL,5141.2010,N,00405.1143,E,164448.000,A,A*48
!AIVDM,1,1,,B,13aKTmhP00PBvLHMTLfN4?wR2D80,0*41
!AIVDM,1,1,,A,B3`jg6@0;`4cI=WIG:?JWwpUoP06,0*2E
!AIVDM,1,1,,B,13a3OIwP00PBgttMT2H;P?wRR@Ln,0*03
$GNRMC,164449.000,A,5141.2010,N,00405.1143,E,0.00,,200724,,,A,V*19
!AIVDM,1,1,,B,H3a3WdP<u8pDhT60l59@Tp40000,2*22
!AIVDM,1,1,,A,13aN3WwP000BcCdMTCdf4?wT0<54,0*03
!AIVDM,1,1,,B,13aGFQPP00PBgh>MT3;9D?wT20ST,0*40
!AIVDM,1,1,,B,H3aN4@PPuA=0u@0000000000000,2*3B
!AIVDM,1,1,,B,13aB:;@P000C7<lMSp8v4?wVP<7w,0*27
!AIVDM,1,1,,A,13`rCr0P00PBgw8MT2MEU?w`2HNB,0*75
!AIVDM,1,1,,A,13aQdIPP00PBhoDMSts9N?wV262h,0*46
!AIVDM,1,1,,B,B3aB8dh0004cJtWII2D03wr5kP06,0*35
!AIVDM,1,1,,B,13bG1P70000Bh;>MT1EtChsb062h,0*04
!AIVDM,1,1,,B,13`evW00000BfqVMT8d;kIAb08O6,0*3E
!AIVDM,1,1,,B,13c1LF8P00PBh2bMT2Bv4?w`2<1n,0*6F
!AIVDM,1,1,,A,H3aGCKTUC=D5ph?@5kmnq01P5220,0*62
!AIVDM,1,1,,A,13c0u600000Bh68MT26WbnSb0d4v,0*41
!AIVDM,1,1,,A,13bFV:7P00PBhu0MST:ldww`0<5G,0*52
!AIVDM,1,1,,B,B3`gUM00=h4aU`7IAEDpcws5oP06,0*5B
!AIVDM,1,1,,B,H3`jg6DTC=D4s>s@5ponk0104310,0*7D
!AIVDM,1,1,,A,13c<c6?0000Bh<>MT1D@015D0@On,0*34
!AIVDM,1,1,,A,B3a3?`00084c>BWI3r?Q3ws1nDVb,0*50
!AIVDM,1,1,,B,H3a3WdTU>1E40<:@2qoji00h9220,0*78
!AIVDM,1,1,,A,13a4;lOP010Be>2MT@?P0?wd20S<,0*64
!AIVDM,1,1,,B,13P=eF@P00PBhuVMStVP0?wf2HP?,0*47
!AIVDM,1,1,,B,13aKhR0P000BiQ<MScMu?wwd00S;,0*57
!AIVDM,1,1,,B,13aEOiPP00PC5wpMT09MR?wd2<3w,0*6D
!AIVDM,1,1,,A,13aCp`0P00PBhkHMSv?@0?wf262h,0*78
$GPVTG,,T,,M,0.00,N,0.00,K,A*23
!AIVDM,1,1,,A,13aFg2@00dPC14fMSpAkGBe`00S>,0*2B
!AIVDM,1,1,,A,B3aPOn@0004c>DWI<vHc?wsUkP06,0*36
$GPGGA,164455.000,5141.2010,N,00405.1143,E,1,16,0.69,4.1,M,47.2,M,,*63
$GNGSA,A,3,04,07,16,20,09,30,29,05,13,06,11,,0.99,0.69,0.71,1*0E
$GNGSA,A,3,83,67,66,68,82,,,,,,,,0.99,0.69,0.71,2*05
!AIVDM,1,1,,A,18I5fG001>P@aM8Mg:ABiRAb0D<N,0*74
$GPGSV,3,1,12,07,66,126,33,20,55,294,21,09,48,076,31,30,47,185,28,0*68
$GPGSV,3,2,12,11,45,243,24,33,28,204,,05,27,304,32,06,23,198,19,0*60
$GPGSV,3,3,12,16,14,038,17,04,12,076,25,13,11,253,30,29,08,315,30,0*6A
!AIVDM,1,1,,B,B3aFf<h0;`4cIA7IFowI3wsUoP06,0*47
$GLGSV,3,1,09,67,66,321,28,66,46,076,24,83,38,295,16,77,34,138,17,1*7F
$GLGSV,3,2,09,82,28,243,26,68,20,286,31,75,12,019,,84,07,353,,1*74
$GLGSV,3,3,09,65,01,095,,1*4F
$GNGLL,5141.2010,N,00405.1143,E,164455.000,A,A*44
!AIVDM,1,1,,A,B3aPOih0?P4bQ=7I8OaFm4L5CP06,0*56
$GNRMC,164456.000,A,5141.2010,N,00405.1143,E,0.00,,200724,,,A,V*17
!AIVDM,1,1,,A,13aIkNhP00PBgjpMT31`fOwh2L3h,0*16
!AIVDM,1,1,,A,33aajv5P00PBgkpMT2hN4?wh2DVr,0*7A
!AIVDM,1,1,,A,13aFfu00000Bi2HMSuQ:FT1j00Si,0*02
!AIVDM,1,1,,B,13aPMsOP00PBh7rMT1qP0?wh2HQQ,0*6B
!AIVDM,1,1,,A,13`fef0000PBhlDMSvD8<qOl08R<,0*6F
!AIVDM,1,1,,B,H3`ekkiLThiV0TT000000000000,2*4F
!AIVDM,1,1,,A,13aEOT@P09PC2cHMSrE:EOwl2<4;,0*0B
!AIVDM,1,1,,B,B3@pC9@0;`4dpAWHsnH=swuUoP06,0*3E
!AIVDM,1,1,,A,13`lI4hP0CPC3=HMSrkbPOwn28Rd,0*14
!AIVDM,1,1,,A,13aGFQPP00PBgh>MT3;9D?wn2@S3,0*6E
!AIVDM,1,1,,B,13aN3WwP000BcCdMTCdf4?wn062h,0*6B
!AIVDM,2,1,9,A,53aN3Wl000010SG?G01<4iAV0@tL00000000000T1P0045?j05000000,0*3B
!AIVDM,2,2,9,A,000000000000000,2*2D
!AIVDM,1,1,,B,33`rCr0P00PBgw8MT2M5U?v426?k,0*77
!AIVDM,1,1,,A,B3`dUW00084cUN7I2CSQ16PUoP06,0*23
